[{"status": "Parrains", "candidat": "ARTHAUD Nathalie", "coordinates": [49.0816980947, 3.47715449247], "couleur": "lightred", "infos": "Ville : Mont-Saint-P\u00e8re/Aisne<br/>Maire : M. Gilles CORDIVAL<br /> -> ARTHAUD Nathalie"}, {"status": "Parrains", "candidat": "ARTHAUD Nathalie", "coordinates": [49.9313828796, 3.75249198254], "couleur": "lightred", "infos": "Ville : Crupilly/Aisne<br/>Maire : Mme Odile VALLIET<br /> -> ARTHAUD Nathalie"}, {"status": "Parrains", "candidat": "ARTHAUD Nathalie", "coordinates": [44.4883156877, 5.84847801019], "couleur": "lightred", "infos": "Ville : Saint-Auban-d'Oze/Hautes-Alpes<br/>Maire : M. Jean-Marie GUEYRAUD<br /> -> ARTHAUD Nathalie"}, {"status": "Parrains", "candidat": "ARTHAUD Nathalie", "coordinates": [43.0990678158, 1.96711035013], "couleur": "lightred", "infos": "Ville : Seignalens/Aude<br/>Maire : Mme Marie-Claude NOUVEL<br /> -> ARTHAUD Nathalie"}, {"status": "Parrains", "candidat": "ARTHAUD Nathalie", "coordinates": [48.5530223296, -2.01383816063], "couleur": "lightred", "infos": "Ville : Langrolay-sur-Rance/C\u00f4tes-d'Armor<br/>Maire : M. Jean-Paul GAINCHE<br /> -> ARTHAUD Nathalie"}, {"status": "Parrains", "candidat": "ARTHAUD Nathalie", "coordinates": [49.2579692139, 1.53784793468], "couleur": "lightred", "infos": "Ville : Richeville/Eure<br/>Maire : M. Roland DUBOS<br /> -> ARTHAUD Nathalie"}, {"status": "Parrains", "candidat": "ARTHAUD Nathalie", "coordinates": [49.1126606736, 0.662290539561], "couleur": "lightred", "infos": "Ville : Saint-L\u00e9ger-de-R\u00f4tes/Eure<br/>Maire : M. Olivier PIQUENOT<br /> -> ARTHAUD Nathalie"}, {"status": "Parrains", "candidat": "ARTHAUD Nathalie", "coordinates": [49.4814801103, -1.82868622801], "couleur": "lightred", "infos": "Ville : Le Rozel/Manche<br/>Maire : M. No\u00ebl LAMOTTE<br /> -> ARTHAUD Nathalie"}, {"status": "Parrains", "candidat": "ARTHAUD Nathalie", "coordinates": [48.007428702, 5.53409668952], "couleur": "lightred", "infos": "Ville : Val-de-Meuse/Haute-Marne<br/>Maire d\u00e9l\u00e9gu\u00e9 d'une commune associ\u00e9e ou d'une commune d\u00e9l\u00e9gu\u00e9e : M. Pascal RORET<br /> -> ARTHAUD Nathalie"}, {"status": "Parrains", "candidat": "ARTHAUD Nathalie", "coordinates": [48.2050671577, 5.60137874866], "couleur": "lightred", "infos": "Ville : Bourmont-entre-Meuse-et-Mouzon/Haute-Marne<br/>Maire d\u00e9l\u00e9gu\u00e9 d'une commune associ\u00e9e ou d'une commune d\u00e9l\u00e9gu\u00e9e : M. Albert RUIZ<br /> -> ARTHAUD Nathalie"}, {"status": "Parrains", "candidat": "ARTHAUD Nathalie", "coordinates": [50.2633672835, 2.15308709023], "couleur": "lightred", "infos": "Ville : Buire-au-Bois/Pas-de-Calais<br/>Maire : M. Thierry BASCOUR<br /> -> ARTHAUD Nathalie"}, {"status": "Parrains", "candidat": "ARTHAUD Nathalie", "coordinates": [50.0285941958, 2.86791432248], "couleur": "lightred", "infos": "Ville : Morval/Pas-de-Calais<br/>Maire : M. Patrice WELELE<br /> -> ARTHAUD Nathalie"}, {"status": "Parrains", "candidat": "ASSELINEAU Fran\u00e7ois", "coordinates": [47.8788477448, 5.76399198551], "couleur": "purple", "infos": "Ville : Voisey/Haute-Marne<br/>Maire : M. Jany GAROT<br /> -> ASSELINEAU Fran\u00e7ois"}, {"status": "Parrains", "candidat": "ASSELINEAU Fran\u00e7ois", "coordinates": [47.6904929765, 5.21656859314], "couleur": "purple", "infos": "Ville : Le Val-d'Esnoms/Haute-Marne<br/>Maire d\u00e9l\u00e9gu\u00e9 d'une commune associ\u00e9e ou d'une commune d\u00e9l\u00e9gu\u00e9e : M. Sylvain GY<br /> -> ASSELINEAU Fran\u00e7ois"}, {"status": "Parrains", "candidat": "ASSELINEAU Fran\u00e7ois", "coordinates": [47.8788477448, 5.76399198551], "couleur": "purple", "infos": "Ville : Voisey/Haute-Marne<br/>Maire d\u00e9l\u00e9gu\u00e9 d'une commune associ\u00e9e ou d'une commune d\u00e9l\u00e9gu\u00e9e : M. Christian LORRAIN<br /> -> ASSELINEAU Fran\u00e7ois"}, {"status": "Parrains", "candidat": "ASSELINEAU Fran\u00e7ois", "coordinates": [47.6942815153, 5.08168973131], "couleur": "purple", "infos": "Ville : Vals-des-Tilles/Haute-Marne<br/>Maire d\u00e9l\u00e9gu\u00e9e d'une commune associ\u00e9e ou d'une commune d\u00e9l\u00e9gu\u00e9e : Mme Sylviane ROUGET<br /> -> ASSELINEAU Fran\u00e7ois"}, {"status": "Parrains", "candidat": "ASSELINEAU Fran\u00e7ois", "coordinates": [48.4532797682, 5.38951402511], "couleur": "purple", "infos": "Ville : Cirfontaines-en-Ornois/Haute-Marne<br/>Maire : Mme Annick VERRON<br /> -> ASSELINEAU Fran\u00e7ois"}, {"status": "Parrains", "candidat": "ASSELINEAU Fran\u00e7ois", "coordinates": [48.6051799268, 6.94048390571], "couleur": "purple", "infos": "Ville : Tanconville/Meurthe-et-Moselle<br/>Maire : M. Jo\u00ebl Guy Jean Marie MATHIEU<br /> -> ASSELINEAU Fran\u00e7ois"}, {"status": "Parrains", "candidat": "ASSELINEAU Fran\u00e7ois", "coordinates": [49.5273912467, 5.1453294871], "couleur": "purple", "infos": "Ville : Luzy-Saint-Martin/Meuse<br/>Maire : M. Daniel DUPUIS<br /> -> ASSELINEAU Fran\u00e7ois"}, {"status": "Parrains", "candidat": "ASSELINEAU Fran\u00e7ois", "coordinates": [48.7606282553, 5.49015408334], "couleur": "purple", "infos": "Ville : Chonville-Malaumont/Meuse<br/>Maire d\u00e9l\u00e9gu\u00e9 d'une commune associ\u00e9e ou d'une commune d\u00e9l\u00e9gu\u00e9e : M. Philippe LANTERNE<br /> -> ASSELINEAU Fran\u00e7ois"}, {"status": "Parrains", "candidat": "ASSELINEAU Fran\u00e7ois", "coordinates": [48.6959536942, 7.08168211214], "couleur": "purple", "infos": "Ville : Schneckenbusch/Moselle<br/>Maire : M. R\u00e9my BIER<br /> -> ASSELINEAU Fran\u00e7ois"}, {"status": "Parrains", "candidat": "ASSELINEAU Fran\u00e7ois", "coordinates": [50.18824872, 1.80178576821], "couleur": "purple", "infos": "Ville : Le Titre/Somme<br/>Maire : M. Pierre DELCOURT<br /> -> ASSELINEAU Fran\u00e7ois"}, {"status": "Parrains", "candidat": "DUPONT-AIGNAN Nicolas", "coordinates": [49.8252306759, 4.19066939985], "couleur": "cadetblue", "infos": "Ville : Aubenton/Aisne<br/>Maire : M. Bernard GREHANT<br /> -> DUPONT-AIGNAN Nicolas"}, {"status": "Parrains", "candidat": "DUPONT-AIGNAN Nicolas", "coordinates": [44.4892842965, 6.13789393583], "couleur": "cadetblue", "infos": "Ville : Valserres/Hautes-Alpes<br/>Maire : M. Jean SARRET<br /> -> DUPONT-AIGNAN Nicolas"}, {"status": "Parrains", "candidat": "DUPONT-AIGNAN Nicolas", "coordinates": [45.2881730966, -0.0840666739743], "couleur": "cadetblue", "infos": "Ville : Saint-Vallier/Charente<br/>Maire : M. Patrick Henri FAVREAU<br /> -> DUPONT-AIGNAN Nicolas"}, {"status": "Parrains", "candidat": "DUPONT-AIGNAN Nicolas", "coordinates": [44.9961149734, 0.285254464127], "couleur": "cadetblue", "infos": "Ville : Beaupouyet/Dordogne<br/>Maire : M. Jean-Luc GROSS<br /> -> DUPONT-AIGNAN Nicolas"}, {"status": "Parrains", "candidat": "DUPONT-AIGNAN Nicolas", "coordinates": [47.3794678972, 6.47979347027], "couleur": "cadetblue", "infos": "Ville : Branne/Doubs<br/>Maire : Mme Fr\u00e9d\u00e9rique PETITJEAN<br /> -> DUPONT-AIGNAN Nicolas"}, {"status": "Parrains", "candidat": "DUPONT-AIGNAN Nicolas", "coordinates": [46.6521648275, 1.56566205857], "couleur": "cadetblue", "infos": "Ville : Tendu/Indre<br/>Maire : M. David RODRIGUEZ<br /> -> DUPONT-AIGNAN Nicolas"}, {"status": "Parrains", "candidat": "DUPONT-AIGNAN Nicolas", "coordinates": [48.7661567656, -1.32946620609], "couleur": "cadetblue", "infos": "Ville : Le Luot/Manche<br/>Maire : M. Daniel GUESNON<br /> -> DUPONT-AIGNAN Nicolas"}, {"status": "Parrains", "candidat": "DUPONT-AIGNAN Nicolas", "coordinates": [48.3053380759, 5.49239986278], "couleur": "cadetblue", "infos": "Ville : Lafauche/Haute-Marne<br/>Maire : M. Jean-Philippe NUFFER<br /> -> DUPONT-AIGNAN Nicolas"}, {"status": "Parrains", "candidat": "DUPONT-AIGNAN Nicolas", "coordinates": [48.7177111982, 6.64038481874], "couleur": "cadetblue", "infos": "Ville : Moncourt/Moselle<br/>Maire : M. Sylvain NICOLAS<br /> -> DUPONT-AIGNAN Nicolas"}, {"status": "Parrains", "candidat": "DUPONT-AIGNAN Nicolas", "coordinates": [49.6080822276, 1.71771760656], "couleur": "cadetblue", "infos": "Ville : Canny-sur-Th\u00e9rain/Oise<br/>Maire : M. Philippe LAVERNHE<br /> -> DUPONT-AIGNAN Nicolas"}, {"status": "Parrains", "candidat": "HIDALGO Anne", "coordinates": [49.9426458618, 4.10483732841], "couleur": "pink", "infos": "Ville : Hirson/Aisne<br/>Maire : M. Jean-Jacques THOMAS<br /> -> HIDALGO Anne"}, {"status": "Parrains", "candidat": "HIDALGO Anne", "coordinates": [46.5636456232, 3.37978160133], "couleur": "pink", "infos": "Ville : Yzeure/Allier<br/>Maire : M. Pascal PERRIN<br /> -> HIDALGO Anne"}, {"status": "Parrains", "candidat": "HIDALGO Anne", "coordinates": [44.9051558168, 4.64438568731], "couleur": "pink", "infos": "Ville : Vernoux-en-Vivarais/Ard\u00e8che<br/>Maire : Mme Martine FINIELS<br /> -> HIDALGO Anne"}, {"status": "Parrains", "candidat": "HIDALGO Anne", "coordinates": [48.316863996, 3.69033893209], "couleur": "pink", "infos": "Ville : Villadin/Aube<br/>Maire : M. Claude TENNEGUIN<br /> -> HIDALGO Anne"}, {"status": "Parrains", "candidat": "HIDALGO Anne", "coordinates": [43.3489710835, 2.3498111989], "couleur": "pink", "infos": "Ville : Villani\u00e8re/Aude<br/>Maire : M. Guy Auguste CALY<br /> -> HIDALGO Anne"}, {"status": "Parrains", "candidat": "HIDALGO Anne", "coordinates": [43.216667, 2.35], "couleur": "pink", "infos": "Aude<br/>Conseiller d\u00e9partemental : M. Christian RAYNAUD<br /> -> HIDALGO Anne"}, {"status": "Parrains", "candidat": "HIDALGO Anne", "coordinates": [45.2703621999, 1.81731506278], "couleur": "pink", "infos": "Ville : Chanac-les-Mines/Corr\u00e8ze<br/>Maire : M. Bernard SALLES<br /> -> HIDALGO Anne"}, {"status": "Parrains", "candidat": "HIDALGO Anne", "coordinates": [47.316667, 5.016667], "couleur": "pink", "infos": "Bourgogne-Franche-Comt\u00e9/C\u00f4te-d'Or<br/>Conseiller r\u00e9gional : M. Jean-Marc RETY<br /> -> HIDALGO Anne"}, {"status": "Parrains", "candidat": "HIDALGO Anne", "coordinates": [48.0, -4.1], "couleur": "pink", "infos": "Finist\u00e8re<br/>Conseiller d\u00e9partemental : M. Didier MALLERON<br /> -> HIDALGO Anne"}, {"status": "Parrains", "candidat": "HIDALGO Anne", "coordinates": [48.0, -4.1], "couleur": "pink", "infos": "Finist\u00e8re<br/>Conseill\u00e8re d\u00e9partementale : Mme Nathalie SARRABEZOLLES<br /> -> HIDALGO Anne"}, {"status": "Parrains", "candidat": "HIDALGO Anne", "coordinates": [43.9410871869, 0.536253009909], "couleur": "pink", "infos": "Ville : Marsolan/Gers<br/>Maire : M. Dominique GONELLA<br /> -> HIDALGO Anne"}, {"status": "Parrains", "candidat": "HIDALGO Anne", "coordinates": [43.5796421888, 0.632117026282], "couleur": "pink", "infos": "Ville : Auterive/Gers<br/>Maire : M. Bernard PENSIVY<br /> -> HIDALGO Anne"}, {"status": "Parrains", "candidat": "HIDALGO Anne", "coordinates": [43.4451021606, 0.683256837932], "couleur": "pink", "infos": "Ville : Betcave-Aguin/Gers<br/>Maire : M. Jacques SERIN<br /> -> HIDALGO Anne"}, {"status": "Parrains", "candidat": "HIDALGO Anne", "coordinates": [45.0431099421, -0.186650688542], "couleur": "pink", "infos": "Ville : Gu\u00eetres/Gironde<br/>Maire : M. Herv\u00e9 ALLOY<br /> -> HIDALGO Anne"}, {"status": "Parrains", "candidat": "HIDALGO Anne", "coordinates": [44.833333, -0.566667], "couleur": "pink", "infos": "Nouvelle-Aquitaine/Gironde<br/>Conseiller r\u00e9gional : M. Dominique ASTIER<br /> -> HIDALGO Anne"}, {"status": "Parrains", "candidat": "HIDALGO Anne", "coordinates": [48.083333, -1.683333], "couleur": "pink", "infos": "Ille-et-Vilaine<br/>Conseill\u00e8re d\u00e9partementale : Mme Armelle BILLARD<br /> -> HIDALGO Anne"}, {"status": "Parrains", "candidat": "HIDALGO Anne", "coordinates": [46.9489390293, 2.00053790133], "couleur": "pink", "infos": "Ville : Issoudun/Indre<br/>Maire : M. Andr\u00e9 LAIGNEL<br /> -> HIDALGO Anne"}, {"status": "Parrains", "candidat": "HIDALGO Anne", "coordinates": [47.916667, 1.9], "couleur": "pink", "infos": "Centre-Val De Loire/Indre<br/>Conseiller r\u00e9gional : M. Dominique ROULLET<br /> -> HIDALGO Anne"}, {"status": "Parrains", "candidat": "HIDALGO Anne", "coordinates": [47.3498571755, 0.367495526989], "couleur": "pink", "infos": "Ville : Langeais/Indre-et-Loire<br/>Maire : M. Pierre-Alain ROIRON<br /> -> HIDALGO Anne"}, {"status": "Parrains", "candidat": "HIDALGO Anne", "coordinates": [44.516667, 3.5], "couleur": "pink", "infos": "Loz\u00e8re<br/>Conseiller d\u00e9partemental : M. Fran\u00e7ois ROBIN<br /> -> HIDALGO Anne"}, {"status": "Parrains", "candidat": "HIDALGO Anne", "coordinates": [47.466667, -0.55], "couleur": "pink", "infos": "Maine-et-Loire<br/>Conseiller d\u00e9partemental : M. Vincent GUIBERT<br /> -> HIDALGO Anne"}, {"status": "Parrains", "candidat": "HIDALGO Anne", "coordinates": [49.633412156, -1.63390160204], "couleur": "pink", "infos": "Ville : Cherbourg-en-Cotentin/Manche<br/>Maire : M. Beno\u00eet ARRIV\u00c9<br /> -> HIDALGO Anne"}, {"status": "Parrains", "candidat": "HIDALGO Anne", "coordinates": [49.183333, -0.35], "couleur": "pink", "infos": "Normandie/Manche<br/>Conseill\u00e8re r\u00e9gionale : Mme Anna PIC<br /> -> HIDALGO Anne"}, {"status": "Parrains", "candidat": "HIDALGO Anne", "coordinates": [48.958333, 4.366667], "couleur": "pink", "infos": "Grand Est/Marne<br/>Conseiller r\u00e9gional : M. Eric QUENARD<br /> -> HIDALGO Anne"}, {"status": "Parrains", "candidat": "HIDALGO Anne", "coordinates": [48.3005429211, 5.33940771996], "couleur": "pink", "infos": "Ville : Reynel/Haute-Marne<br/>Maire : M. Gilles DESNOUVEAUX<br /> -> HIDALGO Anne"}, {"status": "Parrains", "candidat": "HIDALGO Anne", "coordinates": [48.683333, 6.2], "couleur": "pink", "infos": "Meurthe-et-Moselle<br/>S\u00e9nateur : M. Olivier JACQUIN<br /> -> HIDALGO Anne"}, {"status": "Parrains", "candidat": "HIDALGO Anne", "coordinates": [49.2503994373, 5.22447207758], "couleur": "pink", "infos": "Ville : B\u00e9thincourt/Meuse<br/>Maire : Mme Marie-Claude THIL<br /> -> HIDALGO Anne"}, {"status": "Parrains", "candidat": "HIDALGO Anne", "coordinates": [49.433333, 2.083333], "couleur": "pink", "infos": "Oise<br/>Conseill\u00e8re d\u00e9partementale : Mme Dominique LAVALETTE<br /> -> HIDALGO Anne"}, {"status": "Parrains", "candidat": "HIDALGO Anne", "coordinates": [49.183333, -0.35], "couleur": "pink", "infos": "Normandie/Orne<br/>Conseiller r\u00e9gional : M. Laurent BEAUVAIS<br /> -> HIDALGO Anne"}, {"status": "Parrains", "candidat": "HIDALGO Anne", "coordinates": [45.783333, 3.083333], "couleur": "pink", "infos": "Puy-de-D\u00f4me<br/>S\u00e9nateur : M. Jacques-Bernard MAGNER<br /> -> HIDALGO Anne"}, {"status": "Parrains", "candidat": "HIDALGO Anne", "coordinates": [43.233333, 0.083333], "couleur": "pink", "infos": "Hautes-Pyr\u00e9n\u00e9es<br/>Conseill\u00e8re d\u00e9partementale : Mme Genevi\u00e8ve ISSON<br /> -> HIDALGO Anne"}, {"status": "Parrains", "candidat": "HIDALGO Anne", "coordinates": [42.683333, 2.883333], "couleur": "pink", "infos": "Pyr\u00e9n\u00e9es-Orientales<br/>Conseiller d\u00e9partemental : M. Mathias BLANC<br /> -> HIDALGO Anne"}, {"status": "Parrains", "candidat": "HIDALGO Anne", "coordinates": [47.5698613671, 6.76517349246], "couleur": "pink", "infos": "Ville : H\u00e9ricourt/Haute-Sa\u00f4ne<br/>Maire : M. Fernand BURKHALTER<br /> -> HIDALGO Anne"}, {"status": "Parrains", "candidat": "HIDALGO Anne", "coordinates": [47.316667, 5.016667], "couleur": "pink", "infos": "Bourgogne-Franche-Comt\u00e9/Haute-Sa\u00f4ne<br/>Conseiller r\u00e9gional : M. Lo\u00efc NIEPCERON<br /> -> HIDALGO Anne"}, {"status": "Parrains", "candidat": "HIDALGO Anne", "coordinates": [48.856729, 2.291466], "couleur": "pink", "infos": "/Paris<br />Conseiller de Paris<br /> M. Patrick BLOCHE<br /> -> HIDALGO Anne"}, {"status": "Parrains", "candidat": "HIDALGO Anne", "coordinates": [48.856729, 2.291466], "couleur": "pink", "infos": "/Paris<br />Conseiller de Paris<br /> M. Gauthier CARON-THIBAULT<br /> -> HIDALGO Anne"}, {"status": "Parrains", "candidat": "HIDALGO Anne", "coordinates": [48.856729, 2.291466], "couleur": "pink", "infos": "/Paris<br />Conseiller de Paris<br /> M. Thomas CHEVANDIER<br /> -> HIDALGO Anne"}, {"status": "Parrains", "candidat": "HIDALGO Anne", "coordinates": [48.856729, 2.291466], "couleur": "pink", "infos": "/Paris<br />Conseiller de Paris<br /> M. Emmanuel COBLENCE<br /> -> HIDALGO Anne"}, {"status": "Parrains", "candidat": "HIDALGO Anne", "coordinates": [48.856729, 2.291466], "couleur": "pink", "infos": "/Paris<br />Maire d'arrondissement<br /> Mme Alexandra CORDEBARD<br /> -> HIDALGO Anne"}, {"status": "Parrains", "candidat": "HIDALGO Anne", "coordinates": [48.856729, 2.291466], "couleur": "pink", "infos": "Paris<br/>S\u00e9nateur : M. R\u00e9mi FERAUD<br /> -> HIDALGO Anne"}, {"status": "Parrains", "candidat": "HIDALGO Anne", "coordinates": [48.856729, 2.291466], "couleur": "pink", "infos": "/Paris<br />Conseill\u00e8re de Paris<br /> Mme Genevi\u00e8ve GARRIGOS<br /> -> HIDALGO Anne"}, {"status": "Parrains", "candidat": "HIDALGO Anne", "coordinates": [48.856729, 2.291466], "couleur": "pink", "infos": "/Paris<br />Conseill\u00e8re de Paris<br /> Mme Marie-Christine LEMARDELEY<br /> -> HIDALGO Anne"}, {"status": "Parrains", "candidat": "HIDALGO Anne", "coordinates": [48.856729, 2.291466], "couleur": "pink", "infos": "/Paris<br />Conseill\u00e8re de Paris<br /> Mme Carine ROLLAND<br /> -> HIDALGO Anne"}, {"status": "Parrains", "candidat": "HIDALGO Anne", "coordinates": [48.856729, 2.291466], "couleur": "pink", "infos": "/Paris<br />Conseiller de Paris<br /> M. Karim ZIADY<br /> -> HIDALGO Anne"}, {"status": "Parrains", "candidat": "HIDALGO Anne", "coordinates": [48.9419981883, 2.61700200964], "couleur": "pink", "infos": "Ville : Villeparisis/Seine-et-Marne<br/>Maire : M. Frederic BOUCHE<br /> -> HIDALGO Anne"}, {"status": "Parrains", "candidat": "HIDALGO Anne", "coordinates": [45.6749732411, 1.18567878559], "couleur": "pink", "infos": "Ville : Nexon/Haute-Vienne<br/>Maire : M. Fabrice GERVILLE-REACHE<br /> -> HIDALGO Anne"}, {"status": "Parrains", "candidat": "HIDALGO Anne", "coordinates": [48.8034091756, 2.28799131883], "couleur": "pink", "infos": "Ville : Ch\u00e2tillon/Hauts-de-Seine<br/>Maire : Mme Nad\u00e8ge AZZAZ<br /> -> HIDALGO Anne"}, {"status": "Parrains", "candidat": "HIDALGO Anne", "coordinates": [48.9909940165, 2.27800925488], "couleur": "pink", "infos": "Ville : Eaubonne/Val-d'Oise<br/>Maire : Mme Marie-Jos\u00e9 BEAULANDE<br /> -> HIDALGO Anne"}, {"status": "Parrains", "candidat": "JADOT Yannick", "coordinates": [43.216667, 2.35], "couleur": "green", "infos": "Aude<br/>Conseiller d\u00e9partemental : M. Daniel DEDIES<br /> -> JADOT Yannick"}, {"status": "Parrains", "candidat": "JADOT Yannick", "coordinates": [43.4266610754, 1.86444537803], "couleur": "green", "infos": "Ville : Les Cass\u00e9s/Aude<br/>Maire : M. Nicolas RAUZY<br /> -> JADOT Yannick"}, {"status": "Parrains", "candidat": "JADOT Yannick", "coordinates": [47.241732115, 2.49021091816], "couleur": "green", "infos": "Ville : Menetou-Salon/Cher<br/>Maire : M. Pierre FOUCHET<br /> -> JADOT Yannick"}, {"status": "Parrains", "candidat": "JADOT Yannick", "coordinates": [43.4377361422, 0.959505366368], "couleur": "green", "infos": "Ville : Mont\u00e9gut-Sav\u00e8s/Gers<br/>Maire : M. Christian NAUROY<br /> -> JADOT Yannick"}, {"status": "Parrains", "candidat": "JADOT Yannick", "coordinates": [50.633333, 3.066667], "couleur": "green", "infos": "Hauts-De-France/Nord<br/>Conseill\u00e8re r\u00e9gionale : Mme Katy VUYLSTEKER<br /> -> JADOT Yannick"}, {"status": "Parrains", "candidat": "JADOT Yannick", "coordinates": [42.8566915829, 0.263308131503], "couleur": "green", "infos": "Ville : Aulon/Hautes-Pyr\u00e9n\u00e9es<br/>Maire : M. Jean-Bertrand DUBARRY<br /> -> JADOT Yannick"}, {"status": "Parrains", "candidat": "JADOT Yannick", "coordinates": [48.958333, 4.366667], "couleur": "green", "infos": "Grand Est/Bas-Rhin<br/>Conseiller r\u00e9gional : M. Armand MARX<br /> -> JADOT Yannick"}, {"status": "Parrains", "candidat": "JADOT Yannick", "coordinates": [48.958333, 4.366667], "couleur": "green", "infos": "Grand Est/Bas-Rhin<br/>Conseill\u00e8re r\u00e9gionale : Mme Caroline REYS<br /> -> JADOT Yannick"}, {"status": "Parrains", "candidat": "JADOT Yannick", "coordinates": [47.6116259818, 7.0925498257], "couleur": "green", "infos": "Ville : Manspach/Haut-Rhin<br/>Maire : M. Daniel DIETMANN<br /> -> JADOT Yannick"}, {"status": "Parrains", "candidat": "JADOT Yannick", "coordinates": [45.7580491, 4.7650902], "couleur": "green", "infos": "Rh\u00f4ne<br/>Conseill\u00e8re m\u00e9tropolitaine de Lyon : Mme Catherine CREUZE<br /> -> JADOT Yannick"}, {"status": "Parrains", "candidat": "JADOT Yannick", "coordinates": [48.856729, 2.291466], "couleur": "green", "infos": "\u00cele-De-France/Essonne<br/>Conseiller r\u00e9gional : M. Fran\u00e7ois DAMERVAL<br /> -> JADOT Yannick"}, {"status": "Parrains", "candidat": "KAZIB Anasse", "coordinates": [49.0114314442, -0.125222684946], "couleur": "gray", "infos": "Ville : Ernes/Calvados<br/>Maire : M. Xavier LAMANDE<br /> -> KAZIB Anasse"}, {"status": "Parrains", "candidat": "KUZMANOVIC Georges", "coordinates": [48.1413913646, 3.13840843831], "couleur": "lightgray", "infos": "Ville : Villeneuve-la-Dondagre/Yonne<br/>Maire : M. Jean-Fran\u00e7ois ALLIOT<br /> -> KUZMANOVIC Georges"}, {"status": "Parrains", "candidat": "LASSALLE Jean", "coordinates": [46.1744050814, 3.07839354321], "couleur": "lightblue", "infos": "Ville : Valignat/Allier<br/>Maire : Mme Magali BLAES<br /> -> LASSALLE Jean"}, {"status": "Parrains", "candidat": "LASSALLE Jean", "coordinates": [48.204390818, 4.66976546789], "couleur": "lightblue", "infos": "Ville : Couvignon/Aube<br/>Maire : M. Walter L\u00c9GER<br /> -> LASSALLE Jean"}, {"status": "Parrains", "candidat": "LASSALLE Jean", "coordinates": [44.2405098268, 2.10038614517], "couleur": "lightblue", "infos": "Ville : Lunac/Aveyron<br/>Maire : M. Eric BOUNON<br /> -> LASSALLE Jean"}, {"status": "Parrains", "candidat": "LASSALLE Jean", "coordinates": [45.8637317103, -0.314996278369], "couleur": "lightblue", "infos": "Ville : Saint-Ouen-la-Th\u00e8ne/Charente-Maritime<br/>Maire : M. Jean-Michel PIOLOT<br /> -> LASSALLE Jean"}, {"status": "Parrains", "candidat": "LASSALLE Jean", "coordinates": [49.0589220607, 0.906701238061], "couleur": "lightblue", "infos": "Ville : \u00c9manville/Eure<br/>Maire : M. Thierry DULUT<br /> -> LASSALLE Jean"}, {"status": "Parrains", "candidat": "LASSALLE Jean", "coordinates": [43.6540927627, -0.18506977354], "couleur": "lightblue", "infos": "Ville : Corneillan/Gers<br/>Maire : M. Pascal CARREAU<br /> -> LASSALLE Jean"}, {"status": "Parrains", "candidat": "LASSALLE Jean", "coordinates": [45.2294125934, -0.51659465108], "couleur": "lightblue", "infos": "Ville : Reignac/Gironde<br/>Maire : M. Pierre RENOU<br /> -> LASSALLE Jean"}, {"status": "Parrains", "candidat": "LASSALLE Jean", "coordinates": [44.207500641, 0.256573989587], "couleur": "lightblue", "infos": "Ville : Xaintrailles/Lot-et-Garonne<br/>Maire : Mme Mich\u00e8le AUTIPOUT<br /> -> LASSALLE Jean"}, {"status": "Parrains", "candidat": "LASSALLE Jean", "coordinates": [48.8704889111, 3.81828668315], "couleur": "lightblue", "infos": "Ville : Congy/Marne<br/>Maire : M. Jean-Fran\u00e7ois MOUSSY<br /> -> LASSALLE Jean"}, {"status": "Parrains", "candidat": "LASSALLE Jean", "coordinates": [45.6015215325, 3.82060542258], "couleur": "lightblue", "infos": "Ville : Valcivi\u00e8res/Puy-de-D\u00f4me<br/>Maire : M. Andr\u00e9 VOLDOIRE<br /> -> LASSALLE Jean"}, {"status": "Parrains", "candidat": "LASSALLE Jean", "coordinates": [43.2547388679, -0.935719451958], "couleur": "lightblue", "infos": "Ville : Ainharp/Pyr\u00e9n\u00e9es-Atlantiques<br/>Maire : M. Jean-Pierre ARHANCHIAGUE<br /> -> LASSALLE Jean"}, {"status": "Parrains", "candidat": "LASSALLE Jean", "coordinates": [43.3365594073, -0.807320933148], "couleur": "lightblue", "infos": "Ville : Viellenave-de-Navarrenx/Pyr\u00e9n\u00e9es-Atlantiques<br/>Maire : M. Jacques BOURGUET<br /> -> LASSALLE Jean"}, {"status": "Parrains", "candidat": "LASSALLE Jean", "coordinates": [43.3386651984, -0.750086761557], "couleur": "lightblue", "infos": "Ville : M\u00e9ritein/Pyr\u00e9n\u00e9es-Atlantiques<br/>Maire : M. Jean-Baptiste LENDRE<br /> -> LASSALLE Jean"}, {"status": "Parrains", "candidat": "LASSALLE Jean", "coordinates": [43.1583407209, -0.599376287501], "couleur": "lightblue", "infos": "Ville : Gurmen\u00e7on/Pyr\u00e9n\u00e9es-Atlantiques<br/>Maire : M. Jean SARASOLA<br /> -> LASSALLE Jean"}, {"status": "Parrains", "candidat": "LASSALLE Jean", "coordinates": [43.2596416561, -0.11842797217], "couleur": "lightblue", "infos": "Ville : Luquet/Hautes-Pyr\u00e9n\u00e9es<br/>Maire : M. Philippe MASCLE<br /> -> LASSALLE Jean"}, {"status": "Parrains", "candidat": "LE PEN Marine", "coordinates": [48.0969131081, 5.47804670166], "couleur": "beige", "infos": "Ville : Perrusse/Haute-Marne<br/>Maire : M. Fr\u00e9d\u00e9ric LAURENT<br /> -> LE PEN Marine"}, {"status": "Parrains", "candidat": "LE PEN Marine", "coordinates": [50.283333, 2.783333], "couleur": "beige", "infos": "Pas-de-Calais<br/>Conseill\u00e8re d\u00e9partementale : Mme Maryse POULAIN<br /> -> LE PEN Marine"}, {"status": "Parrains", "candidat": "MACRON Emmanuel", "coordinates": [49.566667, 3.616667], "couleur": "blue", "infos": "Aisne<br/>D\u00e9put\u00e9e : Mme Aude BONO-VANDORME<br /> -> MACRON Emmanuel"}, {"status": "Parrains", "candidat": "MACRON Emmanuel", "coordinates": [49.566667, 3.616667], "couleur": "blue", "infos": "Aisne<br/>Conseill\u00e8re d\u00e9partementale : Mme Jeanne DOYEZ ROUSSEL<br /> -> MACRON Emmanuel"}, {"status": "Parrains", "candidat": "MACRON Emmanuel", "coordinates": [49.1029988371, 3.35359350285], "couleur": "blue", "infos": "Ville : \u00c9paux-B\u00e9zu/Aisne<br/>Maire : M. Etienne HAY<br /> -> MACRON Emmanuel"}, {"status": "Parrains", "candidat": "MACRON Emmanuel", "coordinates": [46.3039709752, 3.83067027438], "couleur": "blue", "infos": "Ville : Lenax/Allier<br/>Maire : M. Pascal BAUDELOT<br /> -> MACRON Emmanuel"}, {"status": "Parrains", "candidat": "MACRON Emmanuel", "coordinates": [43.9834965171, 6.24025663148], "couleur": "blue", "infos": "Ville : Beynes/Alpes-de-Haute-Provence<br/>Maire : M. Sylvain FLORES<br /> -> MACRON Emmanuel"}, {"status": "Parrains", "candidat": "MACRON Emmanuel", "coordinates": [44.3408705676, 6.03052669324], "couleur": "blue", "infos": "Ville : La Motte-du-Caire/Alpes-de-Haute-Provence<br/>Maire : M. J\u00e9r\u00f4me FRANCOU<br /> -> MACRON Emmanuel"}, {"status": "Parrains", "candidat": "MACRON Emmanuel", "coordinates": [43.9803884973, 6.59032744238], "couleur": "blue", "infos": "Ville : Allons/Alpes-de-Haute-Provence<br/>Maire : M. Christophe IACOBBI<br /> -> MACRON Emmanuel"}, {"status": "Parrains", "candidat": "MACRON Emmanuel", "coordinates": [43.7119992661, 7.23826889465], "couleur": "blue", "infos": "Ville : Nice/Alpes-Maritimes<br/>Maire : M. Christian ESTROSI<br /> -> MACRON Emmanuel"}, {"status": "Parrains", "candidat": "MACRON Emmanuel", "coordinates": [43.7, 7.25], "couleur": "blue", "infos": "Alpes-Maritimes<br/>D\u00e9put\u00e9e : Mme Alexandra VALETTA ARDISSON<br /> -> MACRON Emmanuel"}, {"status": "Parrains", "candidat": "MACRON Emmanuel", "coordinates": [43.1786208741, 2.48513485536], "couleur": "blue", "infos": "Ville : Floure/Aude<br/>Maire : M. Pierre MICHEAU<br /> -> MACRON Emmanuel"}, {"status": "Parrains", "candidat": "MACRON Emmanuel", "coordinates": [45.1201305737, 2.44307130609], "couleur": "blue", "infos": "Ville : Saint-Martin-Valmeroux/Cantal<br/>Maire : M. Christian FOURNIER<br /> -> MACRON Emmanuel"}, {"status": "Parrains", "candidat": "MACRON Emmanuel", "coordinates": [45.65, 0.15], "couleur": "blue", "infos": "Charente<br/>D\u00e9put\u00e9e : Mme Sandra MARSAUD<br /> -> MACRON Emmanuel"}, {"status": "Parrains", "candidat": "MACRON Emmanuel", "coordinates": [45.6659937822, -0.222233070692], "couleur": "blue", "infos": "Ville : Bourg-Charente/Charente<br/>Maire : M. J\u00e9r\u00f4me SOURISSEAU<br /> -> MACRON Emmanuel"}, {"status": "Parrains", "candidat": "MACRON Emmanuel", "coordinates": [47.2486656169, 5.34673748926], "couleur": "blue", "infos": "Ville : Magny-Montarlot/C\u00f4te-d'Or<br/>Maire : M. Franck DELOY<br /> -> MACRON Emmanuel"}, {"status": "Parrains", "candidat": "MACRON Emmanuel", "coordinates": [47.1528128162, 5.27088407904], "couleur": "blue", "infos": "Ville : Trouhans/C\u00f4te-d'Or<br/>Maire : Mme Annie GAUSSENS<br /> -> MACRON Emmanuel"}, {"status": "Parrains", "candidat": "MACRON Emmanuel", "coordinates": [47.316667, 5.016667], "couleur": "blue", "infos": "C\u00f4te-d'Or<br/>D\u00e9put\u00e9 : M. Didier PARIS<br /> -> MACRON Emmanuel"}, {"status": "Parrains", "candidat": "MACRON Emmanuel", "coordinates": [47.0112430427, 4.57969818527], "couleur": "blue", "infos": "Ville : Molinot/C\u00f4te-d'Or<br/>Maire : M. Christian POULLEAU<br /> -> MACRON Emmanuel"}, {"status": "Parrains", "candidat": "MACRON Emmanuel", "coordinates": [47.1250474303, 4.98564114053], "couleur": "blue", "infos": "Ville : Agencourt/C\u00f4te-d'Or<br/>Maire : M. Gilles SEGUIN<br /> -> MACRON Emmanuel"}, {"status": "Parrains", "candidat": "MACRON Emmanuel", "coordinates": [48.516667, -2.783333], "couleur": "blue", "infos": "C\u00f4tes-d'Armor<br/>D\u00e9put\u00e9 : M. Yannick KERLOGOT<br /> -> MACRON Emmanuel"}, {"status": "Parrains", "candidat": "MACRON Emmanuel", "coordinates": [45.183333, 0.716667], "couleur": "blue", "infos": "Dordogne<br/>D\u00e9put\u00e9 : M. Philippe CHASSAING<br /> -> MACRON Emmanuel"}, {"status": "Parrains", "candidat": "MACRON Emmanuel", "coordinates": [45.183333, 0.716667], "couleur": "blue", "infos": "Dordogne<br/>D\u00e9put\u00e9e : Mme Jacqueline DUBOIS<br /> -> MACRON Emmanuel"}, {"status": "Parrains", "candidat": "MACRON Emmanuel", "coordinates": [44.8177613658, 1.19861057115], "couleur": "blue", "infos": "Ville : La Roque-Gageac/Dordogne<br/>Maire : M. Jerome PEYRAT<br /> -> MACRON Emmanuel"}, {"status": "Parrains", "candidat": "MACRON Emmanuel", "coordinates": [47.25, 6.033333], "couleur": "blue", "infos": "Doubs<br/>Conseill\u00e8re d\u00e9partementale : Mme Martine VOIDEY<br /> -> MACRON Emmanuel"}, {"status": "Parrains", "candidat": "MACRON Emmanuel", "coordinates": [49.2356150972, 1.3466570759], "couleur": "blue", "infos": "Ville : Les Trois Lacs/Eure<br/>Maire : M. Joris BENIER<br /> -> MACRON Emmanuel"}, {"status": "Parrains", "candidat": "MACRON Emmanuel", "coordinates": [49.016667, 1.15], "couleur": "blue", "infos": "Eure<br/>D\u00e9put\u00e9e : Mme S\u00e9verine GIPSON<br /> -> MACRON Emmanuel"}, {"status": "Parrains", "candidat": "MACRON Emmanuel", "coordinates": [49.016667, 1.15], "couleur": "blue", "infos": "Eure<br/>Conseiller d\u00e9partemental : M. S\u00e9bastien LECORNU<br /> -> MACRON Emmanuel"}, {"status": "Parrains", "candidat": "MACRON Emmanuel", "coordinates": [48.7252205742, 0.8185826173], "couleur": "blue", "infos": "Ville : Les Barils/Eure<br/>Maire : M. Philippe OBADIA<br /> -> MACRON Emmanuel"}, {"status": "Parrains", "candidat": "MACRON Emmanuel", "coordinates": [49.016667, 1.15], "couleur": "blue", "infos": "Eure<br/>D\u00e9put\u00e9e : Mme Claire O'PETIT<br /> -> MACRON Emmanuel"}, {"status": "Parrains", "candidat": "MACRON Emmanuel", "coordinates": [48.7377022151, 0.924765167388], "couleur": "blue", "infos": "Ville : Verneuil d'Avre et d'Iton/Eure<br/>Maire : M. Yves Marie RIVEMALE<br /> -> MACRON Emmanuel"}, {"status": "Parrains", "candidat": "MACRON Emmanuel", "coordinates": [43.833333, 4.35], "couleur": "blue", "infos": "Gard<br/>D\u00e9put\u00e9 : M. Philippe BERTA<br /> -> MACRON Emmanuel"}, {"status": "Parrains", "candidat": "MACRON Emmanuel", "coordinates": [48.083333, -1.683333], "couleur": "blue", "infos": "Ille-et-Vilaine<br/>D\u00e9put\u00e9 : M. Ga\u00ebl LE BOHEC<br /> -> MACRON Emmanuel"}, {"status": "Parrains", "candidat": "MACRON Emmanuel", "coordinates": [47.383333, 0.683333], "couleur": "blue", "infos": "Indre-et-Loire<br/>D\u00e9put\u00e9 : M. Philippe CHALUMEAU<br /> -> MACRON Emmanuel"}, {"status": "Parrains", "candidat": "MACRON Emmanuel", "coordinates": [47.5987929508, 0.95907236748], "couleur": "blue", "infos": "Ville : Saunay/Indre-et-Loire<br/>Maire : Mme Catherine DATTEE<br /> -> MACRON Emmanuel"}, {"status": "Parrains", "candidat": "MACRON Emmanuel", "coordinates": [47.2310354675, 0.686650122405], "couleur": "blue", "infos": "Ville : Sorigny/Indre-et-Loire<br/>Maire : M. Alain ESNAULT<br /> -> MACRON Emmanuel"}, {"status": "Parrains", "candidat": "MACRON Emmanuel", "coordinates": [47.216667, -1.55], "couleur": "blue", "infos": "Pays De La Loire/Loire-Atlantique<br/>Conseill\u00e8re r\u00e9gionale : Mme Sophie CASCARINO<br /> -> MACRON Emmanuel"}, {"status": "Parrains", "candidat": "MACRON Emmanuel", "coordinates": [47.0525345648, -1.72353750567], "couleur": "blue", "infos": "Ville : Saint-Lumine-de-Coutais/Loire-Atlantique<br/>Maire : M. Bernard COUDRIAU<br /> -> MACRON Emmanuel"}, {"status": "Parrains", "candidat": "MACRON Emmanuel", "coordinates": [47.216667, -1.55], "couleur": "blue", "infos": "Loire-Atlantique<br/>D\u00e9put\u00e9e : Mme Sophie ERRANTE<br /> -> MACRON Emmanuel"}, {"status": "Parrains", "candidat": "MACRON Emmanuel", "coordinates": [44.2178235565, 0.360960245348], "couleur": "blue", "infos": "Ville : Feugarolles/Lot-et-Garonne<br/>Maire : M. Jean-Fran\u00e7ois GARRABOS<br /> -> MACRON Emmanuel"}, {"status": "Parrains", "candidat": "MACRON Emmanuel", "coordinates": [47.476837416, -0.556125995444], "couleur": "blue", "infos": "Ville : Angers/Maine-et-Loire<br/>Maire : M. Christophe BECHU<br /> -> MACRON Emmanuel"}, {"status": "Parrains", "candidat": "MACRON Emmanuel", "coordinates": [48.6401635513, 4.44092566457], "couleur": "blue", "infos": "Ville : Le Meix-Tiercelin/Marne<br/>Maire : M. Ren\u00e9 MAUTRAIT<br /> -> MACRON Emmanuel"}, {"status": "Parrains", "candidat": "MACRON Emmanuel", "coordinates": [48.116667, 5.133333], "couleur": "blue", "infos": "Haute-Marne<br/>D\u00e9put\u00e9 : M. Sylvain TEMPLIER<br /> -> MACRON Emmanuel"}, {"status": "Parrains", "candidat": "MACRON Emmanuel", "coordinates": [48.1446272021, 5.64945872273], "couleur": "blue", "infos": "Ville : Chaumont-la-Ville/Haute-Marne<br/>Maire : Mme Fran\u00e7oise TRELAT-VALLON<br /> -> MACRON Emmanuel"}, {"status": "Parrains", "candidat": "MACRON Emmanuel", "coordinates": [48.2651790153, -0.621214314022], "couleur": "blue", "infos": "Ville : Moulay/Mayenne<br/>Maire : M. Fr\u00e9d\u00e9ric BORDELET<br /> -> MACRON Emmanuel"}, {"status": "Parrains", "candidat": "MACRON Emmanuel", "coordinates": [47.9182026802, -0.870520798099], "couleur": "blue", "infos": "Ville : Cosmes/Mayenne<br/>Maire : M. Dominique COU\u00cbFF\u00c9<br /> -> MACRON Emmanuel"}, {"status": "Parrains", "candidat": "MACRON Emmanuel", "coordinates": [48.066667, -0.766667], "couleur": "blue", "infos": "Mayenne<br/>Conseill\u00e8re d\u00e9partementale : Mme Fran\u00e7oise DUCHEMIN<br /> -> MACRON Emmanuel"}, {"status": "Parrains", "candidat": "MACRON Emmanuel", "coordinates": [48.066667, -0.766667], "couleur": "blue", "infos": "Mayenne<br/>Conseiller d\u00e9partemental : M. Christophe LANGOUET<br /> -> MACRON Emmanuel"}, {"status": "Parrains", "candidat": "MACRON Emmanuel", "coordinates": [48.4739799839, 6.77926594668], "couleur": "blue", "infos": "Ville : Merviller/Meurthe-et-Moselle<br/>Maire : M. Jean-Luc DEMANGE<br /> -> MACRON Emmanuel"}, {"status": "Parrains", "candidat": "MACRON Emmanuel", "coordinates": [48.783333, 5.166667], "couleur": "blue", "infos": "Meuse<br/>Conseiller d\u00e9partemental : M. Jean-Philippe VAUTRIN<br /> -> MACRON Emmanuel"}, {"status": "Parrains", "candidat": "MACRON Emmanuel", "coordinates": [47.666667, -2.75], "couleur": "blue", "infos": "Morbihan<br/>D\u00e9put\u00e9e : Mme Nicole LE PEIH<br /> -> MACRON Emmanuel"}, {"status": "Parrains", "candidat": "MACRON Emmanuel", "coordinates": [47.6392193445, -2.17681507496], "couleur": "blue", "infos": "Ville : Allaire/Morbihan<br/>Maire : M. Jean-Fran\u00e7ois MARY<br /> -> MACRON Emmanuel"}, {"status": "Parrains", "candidat": "MACRON Emmanuel", "coordinates": [47.666667, -2.75], "couleur": "blue", "infos": "Morbihan<br/>D\u00e9put\u00e9 : M. Herv\u00e9 PELLOIS<br /> -> MACRON Emmanuel"}, {"status": "Parrains", "candidat": "MACRON Emmanuel", "coordinates": [49.133333, 6.166667], "couleur": "blue", "infos": "Moselle<br/>D\u00e9put\u00e9 : M. Christophe AREND<br /> -> MACRON Emmanuel"}, {"status": "Parrains", "candidat": "MACRON Emmanuel", "coordinates": [49.133333, 6.166667], "couleur": "blue", "infos": "Moselle<br/>D\u00e9put\u00e9e : Mme Nicole GRIES-TRISSE<br /> -> MACRON Emmanuel"}, {"status": "Parrains", "candidat": "MACRON Emmanuel", "coordinates": [49.133333, 6.166667], "couleur": "blue", "infos": "Moselle<br/>D\u00e9put\u00e9e : Mme Isabelle RAUCH<br /> -> MACRON Emmanuel"}, {"status": "Parrains", "candidat": "MACRON Emmanuel", "coordinates": [50.3588666163, 3.51567664819], "couleur": "blue", "infos": "Ville : Valenciennes/Nord<br/>Maire : M. Laurent DEGALLAIX<br /> -> MACRON Emmanuel"}, {"status": "Parrains", "candidat": "MACRON Emmanuel", "coordinates": [50.633333, 3.066667], "couleur": "blue", "infos": "Nord<br/>D\u00e9put\u00e9 : M. Christophe DI POMPEO<br /> -> MACRON Emmanuel"}, {"status": "Parrains", "candidat": "MACRON Emmanuel", "coordinates": [50.633333, 3.066667], "couleur": "blue", "infos": "Nord<br/>D\u00e9put\u00e9e : Mme Brigitte LISO<br /> -> MACRON Emmanuel"}, {"status": "Parrains", "candidat": "MACRON Emmanuel", "coordinates": [49.34555437123895, 2.714443933479316], "couleur": "blue", "infos": "Ville : Longueil-Sainte-Marie/Oise<br/>Maire : M. Stanislas BARTHELEMY<br /> -> MACRON Emmanuel"}, {"status": "Parrains", "candidat": "MACRON Emmanuel", "coordinates": [49.433333, 2.083333], "couleur": "blue", "infos": "Oise<br/>D\u00e9put\u00e9e : Mme Carole BUREAU-BONNARD<br /> -> MACRON Emmanuel"}, {"status": "Parrains", "candidat": "MACRON Emmanuel", "coordinates": [49.6903535459, 2.17212127925], "couleur": "blue", "infos": "Ville : Croissy-sur-Celle/Oise<br/>Maire : M. Marc CAGNARD<br /> -> MACRON Emmanuel"}, {"status": "Parrains", "candidat": "MACRON Emmanuel", "coordinates": [50.7679781717, 2.26334881482], "couleur": "blue", "infos": "Ville : Saint-Omer/Pas-de-Calais<br/>Maire : M. Fran\u00e7ois DECOSTER<br /> -> MACRON Emmanuel"}, {"status": "Parrains", "candidat": "MACRON Emmanuel", "coordinates": [50.283333, 2.783333], "couleur": "blue", "infos": "Pas-de-Calais<br/>D\u00e9put\u00e9e : Mme Marguerite DEPREZ-AUDEBERT<br /> -> MACRON Emmanuel"}, {"status": "Parrains", "candidat": "MACRON Emmanuel", "coordinates": [50.3076122259, 2.81123049591], "couleur": "blue", "infos": "Ville : Saint-Laurent-Blangy/Pas-de-Calais<br/>Maire : M. Nicolas DESFACHELLE<br /> -> MACRON Emmanuel"}, {"status": "Parrains", "candidat": "MACRON Emmanuel", "coordinates": [50.283333, 2.783333], "couleur": "blue", "infos": "Pas-de-Calais<br/>D\u00e9put\u00e9e : Mme Jacqueline MAQUET<br /> -> MACRON Emmanuel"}, {"status": "Parrains", "candidat": "MACRON Emmanuel", "coordinates": [50.283333, 2.783333], "couleur": "blue", "infos": "Pas-de-Calais<br/>D\u00e9put\u00e9 : M. Jean-Pierre PONT<br /> -> MACRON Emmanuel"}, {"status": "Parrains", "candidat": "MACRON Emmanuel", "coordinates": [43.2056641864, -0.258861524454], "couleur": "blue", "infos": "Ville : Baudreix/Pyr\u00e9n\u00e9es-Atlantiques<br/>Maire : M. Francis ESCAL\u00c9<br /> -> MACRON Emmanuel"}, {"status": "Parrains", "candidat": "MACRON Emmanuel", "coordinates": [43.3907261571, -0.527272938618], "couleur": "blue", "infos": "Ville : Labastide-Monr\u00e9jeau/Pyr\u00e9n\u00e9es-Atlantiques<br/>Maire : M. Jean-Simon LEBLANC<br /> -> MACRON Emmanuel"}, {"status": "Parrains", "candidat": "MACRON Emmanuel", "coordinates": [43.3, -0.366667], "couleur": "blue", "infos": "Pyr\u00e9n\u00e9es-Atlantiques<br/>D\u00e9put\u00e9e : Mme Josy POUEYTO<br /> -> MACRON Emmanuel"}, {"status": "Parrains", "candidat": "MACRON Emmanuel", "coordinates": [43.233333, 0.083333], "couleur": "blue", "infos": "Hautes-Pyr\u00e9n\u00e9es<br/>Conseiller d\u00e9partemental : M. Fr\u00e9d\u00e9ric LAVAL<br /> -> MACRON Emmanuel"}, {"status": "Parrains", "candidat": "MACRON Emmanuel", "coordinates": [43.233333, 0.083333], "couleur": "blue", "infos": "Hautes-Pyr\u00e9n\u00e9es<br/>Conseill\u00e8re d\u00e9partementale : Mme Virginie SIANI WEMBOU<br /> -> MACRON Emmanuel"}, {"status": "Parrains", "candidat": "MACRON Emmanuel", "coordinates": [42.5104146008, 2.1202342386], "couleur": "blue", "infos": "Ville : Mont-Louis/Pyr\u00e9n\u00e9es-Orientales<br/>Maire : Mme Jo\u00eblle CORDELETTE<br /> -> MACRON Emmanuel"}, {"status": "Parrains", "candidat": "MACRON Emmanuel", "coordinates": [48.583333, 7.75], "couleur": "blue", "infos": "Bas-Rhin<br/>D\u00e9put\u00e9 : M. Thierry MICHELS<br /> -> MACRON Emmanuel"}, {"status": "Parrains", "candidat": "MACRON Emmanuel", "coordinates": [48.9319268767, 7.33608226075], "couleur": "blue", "infos": "Ville : Rosteig/Bas-Rhin<br/>Maire : M. Jean-Luc RINIE<br /> -> MACRON Emmanuel"}, {"status": "Parrains", "candidat": "MACRON Emmanuel", "coordinates": [48.083333, 7.366667], "couleur": "blue", "infos": "Haut-Rhin<br/>Conseill\u00e8re d\u00e9partementale : Mme Brigitte KLINKERT<br /> -> MACRON Emmanuel"}, {"status": "Parrains", "candidat": "MACRON Emmanuel", "coordinates": [48.958333, 4.366667], "couleur": "blue", "infos": "Grand Est/Haut-Rhin<br/>Conseill\u00e8re r\u00e9gionale : Mme S\u00e9verine WEIDER-NIGLIS<br /> -> MACRON Emmanuel"}, {"status": "Parrains", "candidat": "MACRON Emmanuel", "coordinates": [45.7580491, 4.7650902], "couleur": "blue", "infos": "Rh\u00f4ne<br/>D\u00e9put\u00e9e : Mme Anne BRUGNERA<br /> -> MACRON Emmanuel"}, {"status": "Parrains", "candidat": "MACRON Emmanuel", "coordinates": [46.0302777714, 4.31390305209], "couleur": "blue", "infos": "Ville : Thizy-les-Bourgs/Rh\u00f4ne<br/>Maire : M. Martin SOTTON<br /> -> MACRON Emmanuel"}, {"status": "Parrains", "candidat": "MACRON Emmanuel", "coordinates": [48.0861652592, 0.412614616268], "couleur": "blue", "infos": "Ville : Lombron/Sarthe<br/>Maire : M. Alain GREMILLON<br /> -> MACRON Emmanuel"}, {"status": "Parrains", "candidat": "MACRON Emmanuel", "coordinates": [48.0, 0.2], "couleur": "blue", "infos": "Sarthe<br/>D\u00e9put\u00e9 : M. Damien PICHEREAU<br /> -> MACRON Emmanuel"}, {"status": "Parrains", "candidat": "MACRON Emmanuel", "coordinates": [45.7395213661, 5.88235600157], "couleur": "blue", "infos": "Ville : Brison-Saint-Innocent/Savoie<br/>Maire : M. Jean-Claude CROZE<br /> -> MACRON Emmanuel"}, {"status": "Parrains", "candidat": "MACRON Emmanuel", "coordinates": [46.1211763071, 6.68814243155], "couleur": "blue", "infos": "Ville : Verchaix/Haute-Savoie<br/>Maire : M. Jo\u00ebl VAUDEY<br /> -> MACRON Emmanuel"}, {"status": "Parrains", "candidat": "MACRON Emmanuel", "coordinates": [48.856729, 2.291466], "couleur": "blue", "infos": "/Paris<br />Conseill\u00e8re de Paris<br /> Mme Catherine IBLED<br /> -> MACRON Emmanuel"}, {"status": "Parrains", "candidat": "MACRON Emmanuel", "coordinates": [48.856729, 2.291466], "couleur": "blue", "infos": "Paris<br/>D\u00e9put\u00e9 : M. Sylvain MAILLARD<br /> -> MACRON Emmanuel"}, {"status": "Parrains", "candidat": "MACRON Emmanuel", "coordinates": [48.856729, 2.291466], "couleur": "blue", "infos": "Paris<br/>D\u00e9put\u00e9e : Mme Marie SILIN<br /> -> MACRON Emmanuel"}, {"status": "Parrains", "candidat": "MACRON Emmanuel", "coordinates": [48.533333, 2.666667], "couleur": "blue", "infos": "Seine-et-Marne<br/>D\u00e9put\u00e9e : Mme St\u00e9phanie DO<br /> -> MACRON Emmanuel"}, {"status": "Parrains", "candidat": "MACRON Emmanuel", "coordinates": [48.5144915649, 3.23853264046], "couleur": "blue", "infos": "Ville : Longueville/Seine-et-Marne<br/>Maire : M. Philippe FORTIN<br /> -> MACRON Emmanuel"}, {"status": "Parrains", "candidat": "MACRON Emmanuel", "coordinates": [48.9870552422, 3.07455824871], "couleur": "blue", "infos": "Ville : Jaignes/Seine-et-Marne<br/>Maire : M. Achille HOURD\u00c9<br /> -> MACRON Emmanuel"}, {"status": "Parrains", "candidat": "MACRON Emmanuel", "coordinates": [48.8272397742, 2.13014908209], "couleur": "blue", "infos": "Ville : Le Chesnay-Rocquencourt/Yvelines<br/>Maire : M. Richard DELEPIERRE<br /> -> MACRON Emmanuel"}, {"status": "Parrains", "candidat": "MACRON Emmanuel", "coordinates": [49.9, 2.3], "couleur": "blue", "infos": "Somme<br/>D\u00e9put\u00e9e : Mme C\u00e9cile DELPIROU<br /> -> MACRON Emmanuel"}, {"status": "Parrains", "candidat": "MACRON Emmanuel", "coordinates": [49.9600035643, 2.09312731925], "couleur": "blue", "infos": "Ville : Crouy-Saint-Pierre/Somme<br/>Maire d\u00e9l\u00e9gu\u00e9 d'une commune associ\u00e9e ou d'une commune d\u00e9l\u00e9gu\u00e9e : M. Jean-Paul LEULIER<br /> -> MACRON Emmanuel"}, {"status": "Parrains", "candidat": "MACRON Emmanuel", "coordinates": [50.153768945, 1.62848401612], "couleur": "blue", "infos": "Ville : Estr\u00e9b\u0153uf/Somme<br/>Maire : M. Jean-Marie MACHAT<br /> -> MACRON Emmanuel"}, {"status": "Parrains", "candidat": "MACRON Emmanuel", "coordinates": [49.9175121218, 1.95654713132], "couleur": "blue", "infos": "Ville : Warlus/Somme<br/>Maire : M. Bruno MARIAGE<br /> -> MACRON Emmanuel"}, {"status": "Parrains", "candidat": "MACRON Emmanuel", "coordinates": [43.1361589728, 5.93239634249], "couleur": "blue", "infos": "Ville : Toulon/Var<br/>Maire : M. Hubert FALCO<br /> -> MACRON Emmanuel"}, {"status": "Parrains", "candidat": "MACRON Emmanuel", "coordinates": [43.3737632121, 6.3755010333], "couleur": "blue", "infos": "Ville : Le Cannet-des-Maures/Var<br/>Maire : M. Jean-Luc LONGOUR<br /> -> MACRON Emmanuel"}, {"status": "Parrains", "candidat": "MACRON Emmanuel", "coordinates": [46.583333, 0.333333], "couleur": "blue", "infos": "Vienne<br/>D\u00e9put\u00e9e : Mme Fran\u00e7oise BALLET-BLU<br /> -> MACRON Emmanuel"}, {"status": "Parrains", "candidat": "MACRON Emmanuel", "coordinates": [46.583333, 0.333333], "couleur": "blue", "infos": "Vienne<br/>D\u00e9put\u00e9 : M. Sacha HOULI\u00c9<br /> -> MACRON Emmanuel"}, {"status": "Parrains", "candidat": "MACRON Emmanuel", "coordinates": [45.85, 1.25], "couleur": "blue", "infos": "Haute-Vienne<br/>D\u00e9put\u00e9e : Mme Sophie BEAUDOUIN-HUBIERE<br /> -> MACRON Emmanuel"}, {"status": "Parrains", "candidat": "MACRON Emmanuel", "coordinates": [47.8, 3.566667], "couleur": "blue", "infos": "Yonne<br/>D\u00e9put\u00e9e : Mme Mich\u00e8le CROUZET<br /> -> MACRON Emmanuel"}, {"status": "Parrains", "candidat": "MACRON Emmanuel", "coordinates": [47.8, 3.566667], "couleur": "blue", "infos": "Yonne<br/>Conseiller d\u00e9partemental : M. Yves VECTEN<br /> -> MACRON Emmanuel"}, {"status": "Parrains", "candidat": "MACRON Emmanuel", "coordinates": [48.4004789028, 2.16430044754], "couleur": "blue", "infos": "Ville : Ormoy-la-Rivi\u00e8re/Essonne<br/>Maire : M. Michael MERIGOT<br /> -> MACRON Emmanuel"}, {"status": "Parrains", "candidat": "MACRON Emmanuel", "coordinates": [48.9, 2.2], "couleur": "blue", "infos": "Hauts-de-Seine<br/>D\u00e9put\u00e9e : Mme Christine HENNION<br /> -> MACRON Emmanuel"}, {"status": "Parrains", "candidat": "MACRON Emmanuel", "coordinates": [48.783333, 2.466667], "couleur": "blue", "infos": "Val-de-Marne<br/>D\u00e9put\u00e9 : M. Jean-Jacques BRIDEY<br /> -> MACRON Emmanuel"}, {"status": "Parrains", "candidat": "MACRON Emmanuel", "coordinates": [48.783333, 2.466667], "couleur": "blue", "infos": "Val-de-Marne<br/>D\u00e9put\u00e9 : M. Guillaume GOUFFIER-CHA<br /> -> MACRON Emmanuel"}, {"status": "Parrains", "candidat": "MACRON Emmanuel", "coordinates": [48.783333, 2.466667], "couleur": "blue", "infos": "Val-de-Marne<br/>D\u00e9put\u00e9 : M. Jean-Fran\u00e7ois MBAYE<br /> -> MACRON Emmanuel"}, {"status": "Parrains", "candidat": "MACRON Emmanuel", "coordinates": [49.6224195501072, 6.146081355070288], "couleur": "blue", "infos": "/Parlement europ\u00e9en<br/>Repr\u00e9sentante fran\u00e7aise au Parlement europ\u00e9en : Mme Val\u00e9rie HAYER<br /> -> MACRON Emmanuel"}, {"status": "Parrains", "candidat": "M\u00c9LENCHON Jean-Luc", "coordinates": [42.7315992556, 2.1323327803], "couleur": "darkred", "infos": "Ville : Escouloubre/Aude<br/>Maire : M. Jacques PETIT<br /> -> M\u00c9LENCHON Jean-Luc"}, {"status": "Parrains", "candidat": "M\u00c9LENCHON Jean-Luc", "coordinates": [47.4400198641, 4.37366154755], "couleur": "darkred", "infos": "Ville : Montigny-sur-Arman\u00e7on/C\u00f4te-d'Or<br/>Maire : M. Christian CARAYON<br /> -> M\u00c9LENCHON Jean-Luc"}, {"status": "Parrains", "candidat": "M\u00c9LENCHON Jean-Luc", "coordinates": [47.6263032872, 5.20576055486], "couleur": "darkred", "infos": "Ville : Boussenois/C\u00f4te-d'Or<br/>Maire : M. St\u00e9phane GUINOT<br /> -> M\u00c9LENCHON Jean-Luc"}, {"status": "Parrains", "candidat": "M\u00c9LENCHON Jean-Luc", "coordinates": [45.9368272021, 1.99756920373], "couleur": "darkred", "infos": "Ville : Banize/Creuse<br/>Maire : M. Luc ESCOUBEYROU<br /> -> M\u00c9LENCHON Jean-Luc"}, {"status": "Parrains", "candidat": "M\u00c9LENCHON Jean-Luc", "coordinates": [46.1090525957, 1.88611350462], "couleur": "darkred", "infos": "Ville : Savennes/Creuse<br/>Maire : M. Philippe PONSARD<br /> -> M\u00c9LENCHON Jean-Luc"}, {"status": "Parrains", "candidat": "M\u00c9LENCHON Jean-Luc", "coordinates": [47.1232109749, 5.9086321902], "couleur": "darkred", "infos": "Ville : Chouzelot/Doubs<br/>Maire : M. Christian MESNIER<br /> -> M\u00c9LENCHON Jean-Luc"}, {"status": "Parrains", "candidat": "M\u00c9LENCHON Jean-Luc", "coordinates": [44.1045314812, 3.47514344344], "couleur": "darkred", "infos": "Ville : Saint-Sauveur-Camprieu/Gard<br/>Maire : Mme Nicole AMASSE<br /> -> M\u00c9LENCHON Jean-Luc"}, {"status": "Parrains", "candidat": "M\u00c9LENCHON Jean-Luc", "coordinates": [43.6034958124, 0.526620389373], "couleur": "darkred", "infos": "Ville : Lass\u00e9ran/Gers<br/>Maire : M. Michel SORIANO<br /> -> M\u00c9LENCHON Jean-Luc"}, {"status": "Parrains", "candidat": "M\u00c9LENCHON Jean-Luc", "coordinates": [47.916667, 1.9], "couleur": "darkred", "infos": "Centre-Val De Loire/Loiret<br/>Conseill\u00e8re r\u00e9gionale : Mme Karin FISCHER<br /> -> M\u00c9LENCHON Jean-Luc"}, {"status": "Parrains", "candidat": "M\u00c9LENCHON Jean-Luc", "coordinates": [48.683333, 6.2], "couleur": "darkred", "infos": "Meurthe-et-Moselle<br/>Conseill\u00e8re d\u00e9partementale : Mme Caroline FIAT<br /> -> M\u00c9LENCHON Jean-Luc"}, {"status": "Parrains", "candidat": "M\u00c9LENCHON Jean-Luc", "coordinates": [50.283333, 2.783333], "couleur": "darkred", "infos": "Pas-de-Calais<br/>Conseill\u00e8re d\u00e9partementale : Mme Mich\u00e8le JACQUET<br /> -> M\u00c9LENCHON Jean-Luc"}, {"status": "Parrains", "candidat": "M\u00c9LENCHON Jean-Luc", "coordinates": [43.4410472948, 0.0162059547746], "couleur": "darkred", "infos": "Ville : Larreule/Hautes-Pyr\u00e9n\u00e9es<br/>Maire : M. Maurice DUSSOLLIER<br /> -> M\u00c9LENCHON Jean-Luc"}, {"status": "Parrains", "candidat": "M\u00c9LENCHON Jean-Luc", "coordinates": [47.216667, -1.55], "couleur": "darkred", "infos": "Pays De La Loire/Sarthe<br/>Conseiller r\u00e9gional : M. Matthias TAVEL<br /> -> M\u00c9LENCHON Jean-Luc"}, {"status": "Parrains", "candidat": "M\u00c9LENCHON Jean-Luc", "coordinates": [46.3123958137, 0.636100980987], "couleur": "darkred", "infos": "Ville : Queaux/Vienne<br/>Maire : Mme Gis\u00e8le JEAN<br /> -> M\u00c9LENCHON Jean-Luc"}, {"status": "Parrains", "candidat": "P\u00c9CRESSE Val\u00e9rie", "coordinates": [49.566667, 3.616667], "couleur": "darkblue", "infos": "Aisne<br/>S\u00e9natrice : Mme Pascale GRUNY<br /> -> P\u00c9CRESSE Val\u00e9rie"}, {"status": "Parrains", "candidat": "P\u00c9CRESSE Val\u00e9rie", "coordinates": [44.566667, 6.083333], "couleur": "darkblue", "infos": "Hautes-Alpes<br/>Conseiller d\u00e9partemental : M. Daniel GALLAND<br /> -> P\u00c9CRESSE Val\u00e9rie"}, {"status": "Parrains", "candidat": "P\u00c9CRESSE Val\u00e9rie", "coordinates": [43.7247392327, 7.40161617522], "couleur": "darkblue", "infos": "Ville : Cap-d'Ail/Alpes-Maritimes<br/>Maire : M. Xavier BECK<br /> -> P\u00c9CRESSE Val\u00e9rie"}, {"status": "Parrains", "candidat": "P\u00c9CRESSE Val\u00e9rie", "coordinates": [43.7, 7.25], "couleur": "darkblue", "infos": "Alpes-Maritimes<br/>Conseiller d\u00e9partemental : M. Didier CARRETERO<br /> -> P\u00c9CRESSE Val\u00e9rie"}, {"status": "Parrains", "candidat": "P\u00c9CRESSE Val\u00e9rie", "coordinates": [44.733333, 4.6], "couleur": "darkblue", "infos": "Ard\u00e8che<br/>D\u00e9put\u00e9 : M. Fabrice BRUN<br /> -> P\u00c9CRESSE Val\u00e9rie"}, {"status": "Parrains", "candidat": "P\u00c9CRESSE Val\u00e9rie", "coordinates": [44.333333, 2.566667], "couleur": "darkblue", "infos": "Aveyron<br/>Conseill\u00e8re d\u00e9partementale : Mme Magali BESSAOU<br /> -> P\u00c9CRESSE Val\u00e9rie"}, {"status": "Parrains", "candidat": "P\u00c9CRESSE Val\u00e9rie", "coordinates": [45.6939630579, -1.05445584311], "couleur": "darkblue", "infos": "Ville : Breuillet/Charente-Maritime<br/>Maire : M. Jacques LYS<br /> -> P\u00c9CRESSE Val\u00e9rie"}, {"status": "Parrains", "candidat": "P\u00c9CRESSE Val\u00e9rie", "coordinates": [47.3488262505, 2.81132446593], "couleur": "darkblue", "infos": "Ville : Verdigny/Cher<br/>Maire : M. Olivier GAUCHERON<br /> -> P\u00c9CRESSE Val\u00e9rie"}, {"status": "Parrains", "candidat": "P\u00c9CRESSE Val\u00e9rie", "coordinates": [47.5504780732, 5.02209606556], "couleur": "darkblue", "infos": "Ville : Saulx-le-Duc/C\u00f4te-d'Or<br/>Maire : M. Francis PERDERISET<br /> -> P\u00c9CRESSE Val\u00e9rie"}, {"status": "Parrains", "candidat": "P\u00c9CRESSE Val\u00e9rie", "coordinates": [47.25, 6.033333], "couleur": "darkblue", "infos": "Doubs<br/>Conseiller d\u00e9partemental : M. Michel VIENET<br /> -> P\u00c9CRESSE Val\u00e9rie"}, {"status": "Parrains", "candidat": "P\u00c9CRESSE Val\u00e9rie", "coordinates": [48.3668454247, -4.20163770975], "couleur": "darkblue", "infos": "Ville : Irvillac/Finist\u00e8re<br/>Maire : M. Jean No\u00ebl LE GALL<br /> -> P\u00c9CRESSE Val\u00e9rie"}, {"status": "Parrains", "candidat": "P\u00c9CRESSE Val\u00e9rie", "coordinates": [47.583333, 1.333333], "couleur": "darkblue", "infos": "Loir-et-Cher<br/>Conseill\u00e8re d\u00e9partementale : Mme Virginie VERNERET<br /> -> P\u00c9CRESSE Val\u00e9rie"}, {"status": "Parrains", "candidat": "P\u00c9CRESSE Val\u00e9rie", "coordinates": [47.9802482438, 2.41619642926], "couleur": "darkblue", "infos": "Ville : Bellegarde/Loiret<br/>Maire : M. Jean-Jacques MALET<br /> -> P\u00c9CRESSE Val\u00e9rie"}, {"status": "Parrains", "candidat": "P\u00c9CRESSE Val\u00e9rie", "coordinates": [47.466667, -0.55], "couleur": "darkblue", "infos": "Maine-et-Loire<br/>S\u00e9natrice : Mme Catherine DEROCHE<br /> -> P\u00c9CRESSE Val\u00e9rie"}, {"status": "Parrains", "candidat": "P\u00c9CRESSE Val\u00e9rie", "coordinates": [48.7904305607, 3.76355809317], "couleur": "darkblue", "infos": "Ville : Mondement-Montgivroux/Marne<br/>Maire : M. Olivier DUFOUR<br /> -> P\u00c9CRESSE Val\u00e9rie"}, {"status": "Parrains", "candidat": "P\u00c9CRESSE Val\u00e9rie", "coordinates": [48.958333, 4.366667], "couleur": "darkblue", "infos": "Marne<br/>Conseill\u00e8re d\u00e9partementale : Mme Fr\u00e9d\u00e9rique SCHULTHESS<br /> -> P\u00c9CRESSE Val\u00e9rie"}, {"status": "Parrains", "candidat": "P\u00c9CRESSE Val\u00e9rie", "coordinates": [48.116667, 5.133333], "couleur": "darkblue", "infos": "Haute-Marne<br/>S\u00e9nateur : M. Charles GUENE<br /> -> P\u00c9CRESSE Val\u00e9rie"}, {"status": "Parrains", "candidat": "P\u00c9CRESSE Val\u00e9rie", "coordinates": [48.783333, 5.166667], "couleur": "darkblue", "infos": "Meuse<br/>S\u00e9nateur : M. G\u00e9rard LONGUET<br /> -> P\u00c9CRESSE Val\u00e9rie"}, {"status": "Parrains", "candidat": "P\u00c9CRESSE Val\u00e9rie", "coordinates": [48.819060545, 5.48663507868], "couleur": "darkblue", "infos": "Ville : Sampigny/Meuse<br/>Maire : M. Fran\u00e7ois VUILLAUME<br /> -> P\u00c9CRESSE Val\u00e9rie"}, {"status": "Parrains", "candidat": "P\u00c9CRESSE Val\u00e9rie", "coordinates": [49.133333, 6.166667], "couleur": "darkblue", "infos": "Moselle<br/>Conseiller d\u00e9partemental : M. Jean FRAN\u00c7OIS<br /> -> P\u00c9CRESSE Val\u00e9rie"}, {"status": "Parrains", "candidat": "P\u00c9CRESSE Val\u00e9rie", "coordinates": [49.433333, 2.083333], "couleur": "darkblue", "infos": "Oise<br/>Conseiller d\u00e9partemental : M. Patrice FONTAINE<br /> -> P\u00c9CRESSE Val\u00e9rie"}, {"status": "Parrains", "candidat": "P\u00c9CRESSE Val\u00e9rie", "coordinates": [50.5151477103, 1.98923496959], "couleur": "darkblue", "infos": "Ville : Rimboval/Pas-de-Calais<br/>Maire : M. Nicolas PICHONNIER<br /> -> P\u00c9CRESSE Val\u00e9rie"}, {"status": "Parrains", "candidat": "P\u00c9CRESSE Val\u00e9rie", "coordinates": [46.1383512026, 2.93216785544], "couleur": "darkblue", "infos": "Ville : Servant/Puy-de-D\u00f4me<br/>Maire : M. Sylvain DURIN<br /> -> P\u00c9CRESSE Val\u00e9rie"}, {"status": "Parrains", "candidat": "P\u00c9CRESSE Val\u00e9rie", "coordinates": [42.683333, 2.883333], "couleur": "darkblue", "infos": "Pyr\u00e9n\u00e9es-Orientales<br/>Conseill\u00e8re d\u00e9partementale : Mme Armande BARRERE<br /> -> P\u00c9CRESSE Val\u00e9rie"}, {"status": "Parrains", "candidat": "P\u00c9CRESSE Val\u00e9rie", "coordinates": [48.5447196161, 7.4995001297], "couleur": "darkblue", "infos": "Ville : Molsheim/Bas-Rhin<br/>Maire : M. Laurent FURST<br /> -> P\u00c9CRESSE Val\u00e9rie"}, {"status": "Parrains", "candidat": "P\u00c9CRESSE Val\u00e9rie", "coordinates": [48.958333, 4.366667], "couleur": "darkblue", "infos": "Grand Est/Bas-Rhin<br/>Conseiller r\u00e9gional : M. Guy-Dominique KENNEL<br /> -> P\u00c9CRESSE Val\u00e9rie"}, {"status": "Parrains", "candidat": "P\u00c9CRESSE Val\u00e9rie", "coordinates": [48.856729, 2.291466], "couleur": "darkblue", "infos": "/Paris<br />Maire d'arrondissement<br /> M. Jean-Pierre LECOQ<br /> -> P\u00c9CRESSE Val\u00e9rie"}, {"status": "Parrains", "candidat": "P\u00c9CRESSE Val\u00e9rie", "coordinates": [48.7781596518, 1.96049898519], "couleur": "darkblue", "infos": "Ville : \u00c9lancourt/Yvelines<br/>Maire : M. Jean-Michel FOURGOUS<br /> -> P\u00c9CRESSE Val\u00e9rie"}, {"status": "Parrains", "candidat": "P\u00c9CRESSE Val\u00e9rie", "coordinates": [50.3184395938, 1.69211423716], "couleur": "darkblue", "infos": "Ville : Villers-sur-Authie/Somme<br/>Maire : M. Michel RIQUET<br /> -> P\u00c9CRESSE Val\u00e9rie"}, {"status": "Parrains", "candidat": "P\u00c9CRESSE Val\u00e9rie", "coordinates": [43.1499152044, 5.99222538877], "couleur": "darkblue", "infos": "Ville : La Valette-du-Var/Var<br/>Maire : M. Thierry ALBERTINI<br /> -> P\u00c9CRESSE Val\u00e9rie"}, {"status": "Parrains", "candidat": "P\u00c9CRESSE Val\u00e9rie", "coordinates": [47.633333, 6.866667], "couleur": "darkblue", "infos": "Territoire de Belfort<br/>Conseiller d\u00e9partemental : M. Florian BOUQUET<br /> -> P\u00c9CRESSE Val\u00e9rie"}, {"status": "Parrains", "candidat": "P\u00c9CRESSE Val\u00e9rie", "coordinates": [48.4773721699, 2.22600147466], "couleur": "darkblue", "infos": "Ville : Auvers-Saint-Georges/Essonne<br/>Maire : M. Denis MEUNIER<br /> -> P\u00c9CRESSE Val\u00e9rie"}, {"status": "Parrains", "candidat": "P\u00c9CRESSE Val\u00e9rie", "coordinates": [48.75044312, 2.25171297214], "couleur": "darkblue", "infos": "Ville : Verri\u00e8res-le-Buisson/Essonne<br/>Maire : M. Fran\u00e7ois Guy TR\u00c9BULLE<br /> -> P\u00c9CRESSE Val\u00e9rie"}, {"status": "Parrains", "candidat": "P\u00c9CRESSE Val\u00e9rie", "coordinates": [49.0874855412, 1.63442620986], "couleur": "darkblue", "infos": "Ville : La Roche-Guyon/Val-d'Oise<br/>Maire : Mme Capucine FAIVRE<br /> -> P\u00c9CRESSE Val\u00e9rie"}, {"status": "Parrains", "candidat": "POUTOU Philippe", "coordinates": [46.6480131941, 1.43032381865], "couleur": "orange", "infos": "Ville : Saint-Gaultier/Indre<br/>Maire : M. Bruno CHARTIER<br /> -> POUTOU Philippe"}, {"status": "Parrains", "candidat": "POUTOU Philippe", "coordinates": [48.6305942263, 0.0318720441424], "couleur": "orange", "infos": "Ville : Montmerrei/Orne<br/>Maire : M. Claude DUVAL<br /> -> POUTOU Philippe"}, {"status": "Parrains", "candidat": "POUTOU Philippe", "coordinates": [43.138521728, -0.907399706648], "couleur": "orange", "infos": "Ville : Ossas-Suhare/Pyr\u00e9n\u00e9es-Atlantiques<br/>Maire : Mme Mait\u00e9 ECHEVERRIA<br /> -> POUTOU Philippe"}, {"status": "Parrains", "candidat": "POUTOU Philippe", "coordinates": [46.6538485126, 4.93846686758], "couleur": "orange", "infos": "Ville : Gigny-sur-Sa\u00f4ne/Sa\u00f4ne-et-Loire<br/>Maire : M. Marc GAUTHIER<br /> -> POUTOU Philippe"}, {"status": "Parrains", "candidat": "ROUSSEL Fabien", "coordinates": [46.418633391, 3.08862365583], "couleur": "red", "infos": "Ville : Tronget/Allier<br/>Maire : M. Jean-Marc DUMONT<br /> -> ROUSSEL Fabien"}, {"status": "Parrains", "candidat": "ROUSSEL Fabien", "coordinates": [43.1336113618, 2.65379340398], "couleur": "red", "infos": "Ville : Camplong-d'Aude/Aude<br/>Maire : M. Serge L\u00c9PINE<br /> -> ROUSSEL Fabien"}, {"status": "Parrains", "candidat": "ROUSSEL Fabien", "coordinates": [44.995618273, 2.55559240833], "couleur": "red", "infos": "Ville : Velzic/Cantal<br/>Maire : M. Jean-Fran\u00e7ois BARRIER<br /> -> ROUSSEL Fabien"}, {"status": "Parrains", "candidat": "ROUSSEL Fabien", "coordinates": [45.2897248338, 2.65677992591], "couleur": "red", "infos": "Ville : Riom-\u00e8s-Montagnes/Cantal<br/>Maire : M. Fran\u00e7ois BOISSET<br /> -> ROUSSEL Fabien"}, {"status": "Parrains", "candidat": "ROUSSEL Fabien", "coordinates": [45.65, 0.15], "couleur": "red", "infos": "Charente<br/>Conseill\u00e8re d\u00e9partementale : Mme Maryline VINET<br /> -> ROUSSEL Fabien"}, {"status": "Parrains", "candidat": "ROUSSEL Fabien", "coordinates": [48.516667, -2.783333], "couleur": "red", "infos": "C\u00f4tes-d'Armor<br/>S\u00e9nateur : M. G\u00e9rard LAHELLEC<br /> -> ROUSSEL Fabien"}, {"status": "Parrains", "candidat": "ROUSSEL Fabien", "coordinates": [44.8463175043, 0.655294285249], "couleur": "red", "infos": "Ville : Saint-Capraise-de-Lalinde/Dordogne<br/>Maire : M. Laurent PEREA<br /> -> ROUSSEL Fabien"}, {"status": "Parrains", "candidat": "ROUSSEL Fabien", "coordinates": [47.2012632054, 5.78031837648], "couleur": "red", "infos": "Ville : Berthelange/Doubs<br/>Maire : M. Marc DUPONT<br /> -> ROUSSEL Fabien"}, {"status": "Parrains", "candidat": "ROUSSEL Fabien", "coordinates": [48.0, -4.1], "couleur": "red", "infos": "Finist\u00e8re<br/>Conseiller d\u00e9partemental : M. Isma\u00ebl DUPONT<br /> -> ROUSSEL Fabien"}, {"status": "Parrains", "candidat": "ROUSSEL Fabien", "coordinates": [47.9583041483, -3.80153477736], "couleur": "red", "infos": "Ville : Rosporden/Finist\u00e8re<br/>Maire d\u00e9l\u00e9gu\u00e9 d'une commune associ\u00e9e ou d'une commune d\u00e9l\u00e9gu\u00e9e : M. Jacques RANNOU<br /> -> ROUSSEL Fabien"}, {"status": "Parrains", "candidat": "ROUSSEL Fabien", "coordinates": [43.6, 1.433333], "couleur": "red", "infos": "Occitanie/Gers<br/>Conseiller r\u00e9gional : M. Eric CADOR\u00c9<br /> -> ROUSSEL Fabien"}, {"status": "Parrains", "candidat": "ROUSSEL Fabien", "coordinates": [45.433333, 4.4], "couleur": "red", "infos": "Loire<br/>S\u00e9natrice : Mme C\u00e9cile CUKIERMAN<br /> -> ROUSSEL Fabien"}, {"status": "Parrains", "candidat": "ROUSSEL Fabien", "coordinates": [45.4069770909, 4.2690668711], "couleur": "red", "infos": "Ville : Unieux/Loire<br/>Maire : M. Christophe FAVERJON<br /> -> ROUSSEL Fabien"}, {"status": "Parrains", "candidat": "ROUSSEL Fabien", "coordinates": [47.216667, -1.55], "couleur": "red", "infos": "Pays De La Loire/Loire-Atlantique<br/>Conseill\u00e8re r\u00e9gionale : Mme V\u00e9ronique MAH\u00c9<br /> -> ROUSSEL Fabien"}, {"status": "Parrains", "candidat": "ROUSSEL Fabien", "coordinates": [49.2916071166, 5.74543375394], "couleur": "red", "infos": "Ville : Bouligny/Meuse<br/>Maire : M. Eric BERNARDI<br /> -> ROUSSEL Fabien"}, {"status": "Parrains", "candidat": "ROUSSEL Fabien", "coordinates": [50.1911782213, 3.37676857334], "couleur": "red", "infos": "Ville : Avesnes-les-Aubert/Nord<br/>Maire : M. Alexandre BASQUIN<br /> -> ROUSSEL Fabien"}, {"status": "Parrains", "candidat": "ROUSSEL Fabien", "coordinates": [50.633333, 3.066667], "couleur": "red", "infos": "Nord<br/>Conseiller d\u00e9partemental : M. Jean-Claude DULIEU<br /> -> ROUSSEL Fabien"}, {"status": "Parrains", "candidat": "ROUSSEL Fabien", "coordinates": [50.2994352925, 3.38947295524], "couleur": "red", "infos": "Ville : Douchy-les-Mines/Nord<br/>Maire : M. Michel V\u00c9NIAT<br /> -> ROUSSEL Fabien"}, {"status": "Parrains", "candidat": "ROUSSEL Fabien", "coordinates": [50.283333, 2.783333], "couleur": "red", "infos": "Pas-de-Calais<br/>S\u00e9natrice : Mme Cathy APOURCEAU-POLY<br /> -> ROUSSEL Fabien"}, {"status": "Parrains", "candidat": "ROUSSEL Fabien", "coordinates": [50.4204336349, 2.85999934529], "couleur": "red", "infos": "Ville : Sallaumines/Pas-de-Calais<br/>Maire : M. Christian PEDOWSKI<br /> -> ROUSSEL Fabien"}, {"status": "Parrains", "candidat": "ROUSSEL Fabien", "coordinates": [45.6698849896, 3.61279256951], "couleur": "red", "infos": "Ville : Saint-Gervais-sous-Meymont/Puy-de-D\u00f4me<br/>Maire : M. Eric DUBOURGNOUX<br /> -> ROUSSEL Fabien"}, {"status": "Parrains", "candidat": "ROUSSEL Fabien", "coordinates": [43.6, 1.433333], "couleur": "red", "infos": "Occitanie/Hautes-Pyr\u00e9n\u00e9es<br/>Conseill\u00e8re r\u00e9gionale : Mme Yolande GUINLE<br /> -> ROUSSEL Fabien"}, {"status": "Parrains", "candidat": "ROUSSEL Fabien", "coordinates": [45.7580491, 4.7650902], "couleur": "red", "infos": "Rh\u00f4ne<br/>Conseiller m\u00e9tropolitain de Lyon : M. Rapha\u00ebl DEB\u00db<br /> -> ROUSSEL Fabien"}, {"status": "Parrains", "candidat": "ROUSSEL Fabien", "coordinates": [47.316667, 5.016667], "couleur": "red", "infos": "Bourgogne-Franche-Comt\u00e9/Haute-Sa\u00f4ne<br/>Conseiller r\u00e9gional : M. Gilles LAZAR<br /> -> ROUSSEL Fabien"}, {"status": "Parrains", "candidat": "ROUSSEL Fabien", "coordinates": [48.856729, 2.291466], "couleur": "red", "infos": "/Paris<br />Conseiller de Paris<br /> M. Jacques BAUDRIER<br /> -> ROUSSEL Fabien"}, {"status": "Parrains", "candidat": "ROUSSEL Fabien", "coordinates": [48.856729, 2.291466], "couleur": "red", "infos": "/Paris<br />Conseill\u00e8re de Paris<br /> Mme Laurence PATRICE<br /> -> ROUSSEL Fabien"}, {"status": "Parrains", "candidat": "ROUSSEL Fabien", "coordinates": [48.8483311726, 2.59610325483], "couleur": "red", "infos": "Ville : Champs-sur-Marne/Seine-et-Marne<br/>Maire : Mme Maud TALLET<br /> -> ROUSSEL Fabien"}, {"status": "Parrains", "candidat": "ROUSSEL Fabien", "coordinates": [50.0466779829, 1.87770627984], "couleur": "red", "infos": "Ville : \u00c9rondelle/Somme<br/>Maire : M. Claude JACOB<br /> -> ROUSSEL Fabien"}, {"status": "Parrains", "candidat": "ROUSSEL Fabien", "coordinates": [48.9, 2.45], "couleur": "red", "infos": "Seine-Saint-Denis<br/>Conseill\u00e8re d\u00e9partementale : Mme Emilie LECROQ<br /> -> ROUSSEL Fabien"}, {"status": "Parrains", "candidat": "ROUSSEL Fabien", "coordinates": [48.7882828307, 2.39412680533], "couleur": "red", "infos": "Ville : Vitry-sur-Seine/Val-de-Marne<br/>Maire : M. Pierre BELL-LLOCH<br /> -> ROUSSEL Fabien"}, {"status": "Parrains", "candidat": "THOUY H\u00e9l\u00e8ne", "coordinates": [42.9574272598, 2.65821174317], "couleur": "gray", "infos": "Ville : Palairac/Aude<br/>Maire : M. Daniel LANGLOIS<br /> -> THOUY H\u00e9l\u00e8ne"}, {"status": "Parrains", "candidat": "THOUY H\u00e9l\u00e8ne", "coordinates": [47.0326137172, 5.8283117131], "couleur": "gray", "infos": "Ville : Buffard/Doubs<br/>Maire : Mme Jo\u00eblle MAURICE<br /> -> THOUY H\u00e9l\u00e8ne"}, {"status": "Parrains", "candidat": "ZEMMOUR \u00c9ric", "coordinates": [46.7122971226, 1.30178557971], "couleur": "white", "infos": "Ville : Mign\u00e9/Indre<br/>Maire : M. Pierre TELLIER<br /> -> ZEMMOUR \u00c9ric"}, {"status": "Parrains", "candidat": "ZEMMOUR \u00c9ric", "coordinates": [48.2129131551, 2.27113030175], "couleur": "white", "infos": "Ville : Marsainvilliers/Loiret<br/>Maire : M. Didier MONCEAU<br /> -> ZEMMOUR \u00c9ric"}, {"status": "Parrains", "candidat": "ZEMMOUR \u00c9ric", "coordinates": [48.0375731521, 4.80723999451], "couleur": "white", "infos": "Ville : Dinteville/Haute-Marne<br/>Maire : M. Patrick CASUSO<br /> -> ZEMMOUR \u00c9ric"}, {"status": "Parrains", "candidat": "ZEMMOUR \u00c9ric", "coordinates": [48.6931563796, 6.52703036369], "couleur": "white", "infos": "Ville : Bathel\u00e9mont/Meurthe-et-Moselle<br/>Maire : M. Francis VIVIER<br /> -> ZEMMOUR \u00c9ric"}, {"status": "Parrains", "candidat": "ZEMMOUR \u00c9ric", "coordinates": [48.955498451, 5.38479221078], "couleur": "white", "infos": "Ville : Thillombois/Meuse<br/>Maire : M. Jean-Marie HURAUT<br /> -> ZEMMOUR \u00c9ric"}, {"status": "Parrains", "candidat": "ZEMMOUR \u00c9ric", "coordinates": [49.174168393, 6.21680938131], "couleur": "white", "infos": "Ville : Malroy/Moselle<br/>Maire : M. Herv\u00e9 GAUD\u00c9<br /> -> ZEMMOUR \u00c9ric"}, {"status": "Parrains", "candidat": "ZEMMOUR \u00c9ric", "coordinates": [48.9918643442, 6.28019307812], "couleur": "white", "infos": "Ville : Silly-en-Saulnois/Moselle<br/>Maire : M. Jean RENAUT<br /> -> ZEMMOUR \u00c9ric"}, {"status": "Parrains", "candidat": "ZEMMOUR \u00c9ric", "coordinates": [49.6509731175, 2.3591696972], "couleur": "white", "infos": "Ville : Rouvroy-les-Merles/Oise<br/>Maire : M. Maurice MEULIN<br /> -> ZEMMOUR \u00c9ric"}, {"status": "Parrains", "candidat": "ZEMMOUR \u00c9ric", "coordinates": [49.1550668913, 2.98806856134], "couleur": "white", "infos": "Ville : Antilly/Oise<br/>Maire : M. Pierre NAPORA<br /> -> ZEMMOUR \u00c9ric"}, {"status": "Parrains", "candidat": "ZEMMOUR \u00c9ric", "coordinates": [48.788213656, -0.13879185478], "couleur": "white", "infos": "Ville : Ri/Orne<br/>Maire : M. Guillaume DE VIGNERAL<br /> -> ZEMMOUR \u00c9ric"}, {"status": "Parrains", "candidat": "ZEMMOUR \u00c9ric", "coordinates": [43.387860585, -0.103108977353], "couleur": "white", "infos": "Ville : Momy/Pyr\u00e9n\u00e9es-Atlantiques<br/>Maire : M. Marc GAIRIN<br /> -> ZEMMOUR \u00c9ric"}, {"status": "Parrains", "candidat": "ZEMMOUR \u00c9ric", "coordinates": [46.1258360429, 4.76268144564], "couleur": "white", "infos": "Ville : Taponas/Rh\u00f4ne<br/>Maire : M. Daniel FAYARD<br /> -> ZEMMOUR \u00c9ric"}, {"status": "Parrains", "candidat": "ZEMMOUR \u00c9ric", "coordinates": [45.7731821328, 0.823738491047], "couleur": "white", "infos": "Ville : Vayres/Haute-Vienne<br/>Maire : Mme Vanessa LANNETTE MICHAUT<br /> -> ZEMMOUR \u00c9ric"}, {"status": "Parrains", "candidat": "ZEMMOUR \u00c9ric", "coordinates": [48.9, 2.45], "couleur": "white", "infos": "Seine-Saint-Denis<br/>Conseill\u00e8re d\u00e9partementale : Mme Marie-Blanche PIETRI<br /> -> ZEMMOUR \u00c9ric"}, {"status": "Parrains", "candidat": "ARTHAUD Nathalie", "coordinates": [46.3077069231, 4.92862084189], "couleur": "lightred", "infos": "Ville : B\u00e2g\u00e9-le-Ch\u00e2tel/Ain<br/>Maire : M. Jean Louis MALATERRE<br /> -> ARTHAUD Nathalie"}, {"status": "Parrains", "candidat": "ARTHAUD Nathalie", "coordinates": [48.9791200153, 3.24757642131], "couleur": "lightred", "infos": "Ville : Crouttes-sur-Marne/Aisne<br/>Maire : M. Hubert ADAM<br /> -> ARTHAUD Nathalie"}, {"status": "Parrains", "candidat": "ARTHAUD Nathalie", "coordinates": [49.7457495163, 3.73453881149], "couleur": "lightred", "infos": "Ville : Marcy-sous-Marle/Aisne<br/>Maire : M. Christian BLAIN<br /> -> ARTHAUD Nathalie"}, {"status": "Parrains", "candidat": "ARTHAUD Nathalie", "coordinates": [49.709705981, 3.68499803784], "couleur": "lightred", "infos": "Ville : Dercy/Aisne<br/>Maire : M. Bernard BORNIER<br /> -> ARTHAUD Nathalie"}, {"status": "Parrains", "candidat": "ARTHAUD Nathalie", "coordinates": [49.7689463972, 3.66761782458], "couleur": "lightred", "infos": "Ville : Sons-et-Ronch\u00e8res/Aisne<br/>Maire : M. Christian JONNEAUX<br /> -> ARTHAUD Nathalie"}, {"status": "Parrains", "candidat": "ARTHAUD Nathalie", "coordinates": [49.651625761, 3.12103476493], "couleur": "lightred", "infos": "Ville : Guivry/Aisne<br/>Maire : Mme Nadine PODEVIN<br /> -> ARTHAUD Nathalie"}, {"status": "Parrains", "candidat": "ARTHAUD Nathalie", "coordinates": [49.1828178666, 3.57092215608], "couleur": "lightred", "infos": "Ville : Sergy/Aisne<br/>Maire : M. Patrick POIX<br /> -> ARTHAUD Nathalie"}, {"status": "Parrains", "candidat": "ARTHAUD Nathalie", "coordinates": [49.2414407733, 3.14413128827], "couleur": "lightred", "infos": "Ville : Dampleux/Aisne<br/>Maire : M. Guillaume SEGUIN<br /> -> ARTHAUD Nathalie"}, {"status": "Parrains", "candidat": "ARTHAUD Nathalie", "coordinates": [44.5897361415, 5.88561114683], "couleur": "lightred", "infos": "Ville : Montmaur/Hautes-Alpes<br/>Maire : M. Georges LESBROS<br /> -> ARTHAUD Nathalie"}, {"status": "Parrains", "candidat": "ARTHAUD Nathalie", "coordinates": [45.2257853403, 4.59519658449], "couleur": "lightred", "infos": "Ville : Villevocance/Ard\u00e8che<br/>Maire : M. Denis HONORE<br /> -> ARTHAUD Nathalie"}, {"status": "Parrains", "candidat": "ARTHAUD Nathalie", "coordinates": [49.516603776, 4.42838018465], "couleur": "lightred", "infos": "Ville : Doux/Ardennes<br/>Maire : M. Ren\u00e9 DEBROSSE<br /> -> ARTHAUD Nathalie"}, {"status": "Parrains", "candidat": "ARTHAUD Nathalie", "coordinates": [50.0894618864, 4.78296461056], "couleur": "lightred", "infos": "Ville : Ham-sur-Meuse/Ardennes<br/>Maire : M. Jean-Claude JACQUEMART<br /> -> ARTHAUD Nathalie"}, {"status": "Parrains", "candidat": "ARTHAUD Nathalie", "coordinates": [49.6350718482, 4.97725786194], "couleur": "lightred", "infos": "Ville : Angecourt/Ardennes<br/>Maire : Mme Fr\u00e9d\u00e9rique KRETZMEYER ZALTANI<br /> -> ARTHAUD Nathalie"}, {"status": "Parrains", "candidat": "ARTHAUD Nathalie", "coordinates": [48.5229300856, 3.47856484513], "couleur": "lightred", "infos": "Ville : Saint-Nicolas-la-Chapelle/Aube<br/>Maire : M. Gilbert Gabriel LEMAUR<br /> -> ARTHAUD Nathalie"}, {"status": "Parrains", "candidat": "ARTHAUD Nathalie", "coordinates": [44.3037455115, 2.17927140431], "couleur": "lightred", "infos": "Ville : La Capelle-Bleys/Aveyron<br/>Maire : M. Alain BESSAC<br /> -> ARTHAUD Nathalie"}, {"status": "Parrains", "candidat": "ARTHAUD Nathalie", "coordinates": [49.311643762, -0.666479750788], "couleur": "lightred", "infos": "Ville : Magny-en-Bessin/Calvados<br/>Maire : M. Andr\u00e9 BLET<br /> -> ARTHAUD Nathalie"}, {"status": "Parrains", "candidat": "ARTHAUD Nathalie", "coordinates": [48.9597084503, -0.125803038768], "couleur": "lightred", "infos": "Ville : Perri\u00e8res/Calvados<br/>Maire : M. G\u00e9rard CHANDON<br /> -> ARTHAUD Nathalie"}, {"status": "Parrains", "candidat": "ARTHAUD Nathalie", "coordinates": [48.8918716437, -0.583734830586], "couleur": "lightred", "infos": "Ville : Pont\u00e9coulant/Calvados<br/>Maire : M. Jean-Pierre MOURICE<br /> -> ARTHAUD Nathalie"}, {"status": "Parrains", "candidat": "ARTHAUD Nathalie", "coordinates": [49.0142202148, -0.345317052278], "couleur": "lightred", "infos": "Ville : Barbery/Calvados<br/>Maire : M. Guy PISLARD<br /> -> ARTHAUD Nathalie"}, {"status": "Parrains", "candidat": "ARTHAUD Nathalie", "coordinates": [49.2376795165, -0.779194569684], "couleur": "lightred", "infos": "Ville : Agy/Calvados<br/>Maire : M. Christophe POITEVIN<br /> -> ARTHAUD Nathalie"}, {"status": "Parrains", "candidat": "ARTHAUD Nathalie", "coordinates": [49.2239444771, -0.775339384776], "couleur": "lightred", "infos": "Ville : Noron-la-Poterie/Calvados<br/>Maire : M. Fran\u00e7ois SCELLES<br /> -> ARTHAUD Nathalie"}, {"status": "Parrains", "candidat": "ARTHAUD Nathalie", "coordinates": [46.069351116, 0.537822207003], "couleur": "lightred", "infos": "Ville : \u00c9pen\u00e8de/Charente<br/>Maire : M. Philippe Eric Jules DENIMAL<br /> -> ARTHAUD Nathalie"}, {"status": "Parrains", "candidat": "ARTHAUD Nathalie", "coordinates": [45.9677756754, -0.339891615561], "couleur": "lightred", "infos": "Ville : Cherbonni\u00e8res/Charente-Maritime<br/>Maire : Mme Marie-Claude GIOVANNINI<br /> -> ARTHAUD Nathalie"}, {"status": "Parrains", "candidat": "ARTHAUD Nathalie", "coordinates": [45.9212951544, -0.601162350534], "couleur": "lightred", "infos": "Ville : Bignay/Charente-Maritime<br/>Maire : M. Alain M\u00c8GE<br /> -> ARTHAUD Nathalie"}, {"status": "Parrains", "candidat": "ARTHAUD Nathalie", "coordinates": [46.8163723965, 3.01072708056], "couleur": "lightred", "infos": "Ville : Mornay-sur-Allier/Cher<br/>Maire : Mme Isabelle PEREZ<br /> -> ARTHAUD Nathalie"}, {"status": "Parrains", "candidat": "ARTHAUD Nathalie", "coordinates": [45.6486687844, 2.22209059554], "couleur": "lightred", "infos": "Ville : Bellechassagne/Corr\u00e8ze<br/>Maire : M. Claude BAUVY<br /> -> ARTHAUD Nathalie"}, {"status": "Parrains", "candidat": "ARTHAUD Nathalie", "coordinates": [45.6074727471, 2.2137903995], "couleur": "lightred", "infos": "Ville : Saint-Germain-Lavolps/Corr\u00e8ze<br/>Maire : M. Didier PENELOUX<br /> -> ARTHAUD Nathalie"}, {"status": "Parrains", "candidat": "ARTHAUD Nathalie", "coordinates": [41.7417710939, 8.88010382989], "couleur": "lightred", "infos": "Ville : Sollacaro/Corse-du-Sud<br/>Maire : M. Jean Jacques BARTOLI<br /> -> ARTHAUD Nathalie"}, {"status": "Parrains", "candidat": "ARTHAUD Nathalie", "coordinates": [46.9678867333, 5.09111140101], "couleur": "lightred", "infos": "Ville : Chivres/C\u00f4te-d'Or<br/>Maire : M. Jean-Marc CHAPUIS<br /> -> ARTHAUD Nathalie"}, {"status": "Parrains", "candidat": "ARTHAUD Nathalie", "coordinates": [47.4964918792, 4.61948858454], "couleur": "lightred", "infos": "Ville : Thenissey/C\u00f4te-d'Or<br/>Maire : M. Georges COURB\u00c9<br /> -> ARTHAUD Nathalie"}, {"status": "Parrains", "candidat": "ARTHAUD Nathalie", "coordinates": [47.129772588, 4.7343345695], "couleur": "lightred", "infos": "Ville : Aubaine/C\u00f4te-d'Or<br/>Maire : Mme Monique FEBVRE<br /> -> ARTHAUD Nathalie"}, {"status": "Parrains", "candidat": "ARTHAUD Nathalie", "coordinates": [47.1875125214, 4.62169164492], "couleur": "lightred", "infos": "Ville : Sainte-Sabine/C\u00f4te-d'Or<br/>Maire : Mme V\u00e9ronique GODOT<br /> -> ARTHAUD Nathalie"}, {"status": "Parrains", "candidat": "ARTHAUD Nathalie", "coordinates": [47.2250095232, 5.29242565659], "couleur": "lightred", "infos": "Ville : Collonges-et-Premi\u00e8res/C\u00f4te-d'Or<br/>Maire d\u00e9l\u00e9gu\u00e9 d'une commune associ\u00e9e ou d'une commune d\u00e9l\u00e9gu\u00e9e : M. Pascal MARTEAU<br /> -> ARTHAUD Nathalie"}, {"status": "Parrains", "candidat": "ARTHAUD Nathalie", "coordinates": [47.1150954708, 4.68344440559], "couleur": "lightred", "infos": "Ville : Bligny-sur-Ouche/C\u00f4te-d'Or<br/>Maire : M. Denis MYOTTE<br /> -> ARTHAUD Nathalie"}, {"status": "Parrains", "candidat": "ARTHAUD Nathalie", "coordinates": [47.0475621038, 5.26433353481], "couleur": "lightred", "infos": "Ville : Franxault/C\u00f4te-d'Or<br/>Maire : M. Camille SIMAR<br /> -> ARTHAUD Nathalie"}, {"status": "Parrains", "candidat": "ARTHAUD Nathalie", "coordinates": [47.5403544137, 5.45162179953], "couleur": "lightred", "infos": "Ville : Pouilly-sur-Vingeanne/C\u00f4te-d'Or<br/>Maire : M. Nicolas TASSIN<br /> -> ARTHAUD Nathalie"}, {"status": "Parrains", "candidat": "ARTHAUD Nathalie", "coordinates": [48.3998800442, -2.38881241338], "couleur": "lightred", "infos": "Ville : Tramain/C\u00f4tes-d'Armor<br/>Maire : M. Benjamin GUILLERME-JUBIN<br /> -> ARTHAUD Nathalie"}, {"status": "Parrains", "candidat": "ARTHAUD Nathalie", "coordinates": [48.4195714776, -2.05460996507], "couleur": "lightred", "infos": "Ville : Saint-Carn\u00e9/C\u00f4tes-d'Armor<br/>Maire : M. Ronan TRELLU<br /> -> ARTHAUD Nathalie"}, {"status": "Parrains", "candidat": "ARTHAUD Nathalie", "coordinates": [47.3852773517, 6.7626810066], "couleur": "lightred", "infos": "Ville : Pont-de-Roide-Vermondans/Doubs<br/>Maire : M. Denis ARNOUX<br /> -> ARTHAUD Nathalie"}, {"status": "Parrains", "candidat": "ARTHAUD Nathalie", "coordinates": [47.3218215365, 5.91157630752], "couleur": "lightred", "infos": "Ville : Sauvagney/Doubs<br/>Maire : M. Pascal DUCRET<br /> -> ARTHAUD Nathalie"}, {"status": "Parrains", "candidat": "ARTHAUD Nathalie", "coordinates": [47.3634845097, 6.46991658309], "couleur": "lightred", "infos": "Ville : Roche-l\u00e8s-Clerval/Doubs<br/>Maire : M. Marc FARINE<br /> -> ARTHAUD Nathalie"}, {"status": "Parrains", "candidat": "ARTHAUD Nathalie", "coordinates": [47.0155751982, 6.00196889347], "couleur": "lightred", "infos": "Ville : \u00c9ternoz/Doubs<br/>Maire : M. Christophe GARNIER<br /> -> ARTHAUD Nathalie"}, {"status": "Parrains", "candidat": "ARTHAUD Nathalie", "coordinates": [47.4975648917, 6.33629844755], "couleur": "lightred", "infos": "Ville : Tressandans/Doubs<br/>Maire : M. Thierry MAIRE<br /> -> ARTHAUD Nathalie"}, {"status": "Parrains", "candidat": "ARTHAUD Nathalie", "coordinates": [47.2582388477, 5.84946760643], "couleur": "lightred", "infos": "Ville : Placey/Doubs<br/>Maire : M. Fr\u00e9d\u00e9ric REIGNEY<br /> -> ARTHAUD Nathalie"}, {"status": "Parrains", "candidat": "ARTHAUD Nathalie", "coordinates": [45.1545545543, 5.08934603191], "couleur": "lightred", "infos": "Ville : Le Chalon/Dr\u00f4me<br/>Maire : M. Fran\u00e7ois CAUMES<br /> -> ARTHAUD Nathalie"}, {"status": "Parrains", "candidat": "ARTHAUD Nathalie", "coordinates": [49.3128587162, 1.28416486322], "couleur": "lightred", "infos": "Ville : Flipou/Eure<br/>Maire : M. Christian BR\u00c9ANT<br /> -> ARTHAUD Nathalie"}, {"status": "Parrains", "candidat": "ARTHAUD Nathalie", "coordinates": [48.9105126717, 0.900919598121], "couleur": "lightred", "infos": "Ville : Beaubray/Eure<br/>Maire : M. Denis CAVELIER<br /> -> ARTHAUD Nathalie"}, {"status": "Parrains", "candidat": "ARTHAUD Nathalie", "coordinates": [49.384064596, 1.30432026998], "couleur": "lightred", "infos": "Ville : Bourg-Beaudouin/Eure<br/>Maire : M. Philippe HALOT<br /> -> ARTHAUD Nathalie"}, {"status": "Parrains", "candidat": "ARTHAUD Nathalie", "coordinates": [49.094937175, 1.34106749304], "couleur": "lightred", "infos": "Ville : Sainte-Colombe-pr\u00e8s-Vernon/Eure<br/>Maire : M. Alain JOURDREN<br /> -> ARTHAUD Nathalie"}, {"status": "Parrains", "candidat": "ARTHAUD Nathalie", "coordinates": [48.7377022151, 0.924765167388], "couleur": "lightred", "infos": "Ville : Verneuil d'Avre et d'Iton/Eure<br/>Maire d\u00e9l\u00e9gu\u00e9 d'une commune associ\u00e9e ou d'une commune d\u00e9l\u00e9gu\u00e9e : M. H\u00e9lyan LATHUILE<br /> -> ARTHAUD Nathalie"}, {"status": "Parrains", "candidat": "ARTHAUD Nathalie", "coordinates": [49.3540348, 1.52612367067], "couleur": "lightred", "infos": "Ville : Puchay/Eure<br/>Maire : M. Thierry MABYRE<br /> -> ARTHAUD Nathalie"}, {"status": "Parrains", "candidat": "ARTHAUD Nathalie", "coordinates": [44.2419428616, 4.32299911725], "couleur": "lightred", "infos": "Ville : Tharaux/Gard<br/>Maire : M. Denis GUILLAUME<br /> -> ARTHAUD Nathalie"}, {"status": "Parrains", "candidat": "ARTHAUD Nathalie", "coordinates": [45.2509775886, -0.781613837384], "couleur": "lightred", "infos": "Ville : Saint-Est\u00e8phe/Gironde<br/>Maire : Mme Michelle SAINTOUT<br /> -> ARTHAUD Nathalie"}, {"status": "Parrains", "candidat": "ARTHAUD Nathalie", "coordinates": [47.7338101776, -1.8052140064], "couleur": "lightred", "infos": "Ville : Sainte-Anne-sur-Vilaine/Ille-et-Vilaine<br/>Maire : M. Jean-Michel GAUDICHON<br /> -> ARTHAUD Nathalie"}, {"status": "Parrains", "candidat": "ARTHAUD Nathalie", "coordinates": [47.7748715245, -2.04938893664], "couleur": "lightred", "infos": "Ville : Sixt-sur-Aff/Ille-et-Vilaine<br/>Maire : M. Ren\u00e9 RIAUD<br /> -> ARTHAUD Nathalie"}, {"status": "Parrains", "candidat": "ARTHAUD Nathalie", "coordinates": [46.4467096197, 2.04531579946], "couleur": "lightred", "infos": "Ville : Sazeray/Indre<br/>Maire : M. Didier BRUNET<br /> -> ARTHAUD Nathalie"}, {"status": "Parrains", "candidat": "ARTHAUD Nathalie", "coordinates": [46.6238195664, 1.1836718516], "couleur": "lightred", "infos": "Ville : Ruffec/Indre<br/>Maire : Mme Edith VACHAUD<br /> -> ARTHAUD Nathalie"}, {"status": "Parrains", "candidat": "ARTHAUD Nathalie", "coordinates": [47.4777083311, 0.253067103583], "couleur": "lightred", "infos": "Ville : Channay-sur-Lathan/Indre-et-Loire<br/>Maire : Mme Isabelle M\u00c9LO<br /> -> ARTHAUD Nathalie"}, {"status": "Parrains", "candidat": "ARTHAUD Nathalie", "coordinates": [47.2927801953, 1.8752007489], "couleur": "lightred", "infos": "Ville : Mennetou-sur-Cher/Loir-et-Cher<br/>Maire : M. Christophe THORIN<br /> -> ARTHAUD Nathalie"}, {"status": "Parrains", "candidat": "ARTHAUD Nathalie", "coordinates": [45.4650232925, 4.66054627244], "couleur": "lightred", "infos": "Ville : Pavezin/Loire<br/>Maire : M. Yves LECOCQ<br /> -> ARTHAUD Nathalie"}, {"status": "Parrains", "candidat": "ARTHAUD Nathalie", "coordinates": [44.6769137032, 1.91696387098], "couleur": "lightred", "infos": "Ville : Issepts/Lot<br/>Maire : M. Jo\u00ebl DUPIN<br /> -> ARTHAUD Nathalie"}, {"status": "Parrains", "candidat": "ARTHAUD Nathalie", "coordinates": [44.3328995113, 0.305811875676], "couleur": "lightred", "infos": "Ville : Monheurt/Lot-et-Garonne<br/>Maire : M. Jos\u00e9 ARMAND<br /> -> ARTHAUD Nathalie"}, {"status": "Parrains", "candidat": "ARTHAUD Nathalie", "coordinates": [44.2937484234, 3.15910137508], "couleur": "lightred", "infos": "Ville : Massegros Causses Gorges/Loz\u00e8re<br/>Maire d\u00e9l\u00e9gu\u00e9 d'une commune associ\u00e9e ou d'une commune d\u00e9l\u00e9gu\u00e9e : M. Jean CALMELS<br /> -> ARTHAUD Nathalie"}, {"status": "Parrains", "candidat": "ARTHAUD Nathalie", "coordinates": [44.4911701749, 3.38102042197], "couleur": "lightred", "infos": "Ville : Cultures/Loz\u00e8re<br/>Maire : M. Jean-S\u00e9bastien SALENDRES<br /> -> ARTHAUD Nathalie"}, {"status": "Parrains", "candidat": "ARTHAUD Nathalie", "coordinates": [48.5412543067, -0.878410989848], "couleur": "lightred", "infos": "Ville : Le Teilleul/Manche<br/>Maire d\u00e9l\u00e9gu\u00e9 d'une commune associ\u00e9e ou d'une commune d\u00e9l\u00e9gu\u00e9e : M. Fabien BOUZIN<br /> -> ARTHAUD Nathalie"}, {"status": "Parrains", "candidat": "ARTHAUD Nathalie", "coordinates": [48.8755777251, -1.19526749563], "couleur": "lightred", "infos": "Ville : La Colombe/Manche<br/>Maire : Mme Isabelle CHAMPBERTAULD<br /> -> ARTHAUD Nathalie"}, {"status": "Parrains", "candidat": "ARTHAUD Nathalie", "coordinates": [48.9941243257, -1.13665567668], "couleur": "lightred", "infos": "Ville : Moyon Villages/Manche<br/>Maire d\u00e9l\u00e9gu\u00e9 d'une commune associ\u00e9e ou d'une commune d\u00e9l\u00e9gu\u00e9e : M. Patrick HARDEL<br /> -> ARTHAUD Nathalie"}, {"status": "Parrains", "candidat": "ARTHAUD Nathalie", "coordinates": [49.3098408956, -1.36772622791], "couleur": "lightred", "infos": "Ville : Baupte/Manche<br/>Maire : M. Daniel THOMAS<br /> -> ARTHAUD Nathalie"}, {"status": "Parrains", "candidat": "ARTHAUD Nathalie", "coordinates": [49.2241452412, 4.76942905433], "couleur": "lightred", "infos": "Ville : Cernay-en-Dormois/Marne<br/>Maire : M. Jean-Pierre CHAPRON<br /> -> ARTHAUD Nathalie"}, {"status": "Parrains", "candidat": "ARTHAUD Nathalie", "coordinates": [48.6098773154, 4.58918617422], "couleur": "lightred", "infos": "Ville : Gigny-Bussy/Marne<br/>Maire : Mme Pascale CHEVALLOT<br /> -> ARTHAUD Nathalie"}, {"status": "Parrains", "candidat": "ARTHAUD Nathalie", "coordinates": [49.2081540683, 4.84616301412], "couleur": "lightred", "infos": "Ville : Servon-Melzicourt/Marne<br/>Maire : M. Gauthier GUYOT<br /> -> ARTHAUD Nathalie"}, {"status": "Parrains", "candidat": "ARTHAUD Nathalie", "coordinates": [48.7405847183, 4.67233357502], "couleur": "lightred", "infos": "Ville : Plichancourt/Marne<br/>Maire : M. Christian SEYS<br /> -> ARTHAUD Nathalie"}, {"status": "Parrains", "candidat": "ARTHAUD Nathalie", "coordinates": [48.4718286513, 5.10006137447], "couleur": "lightred", "infos": "Ville : Chatonrupt-Sommermont/Haute-Marne<br/>Maire d\u00e9l\u00e9gu\u00e9e d'une commune associ\u00e9e ou d'une commune d\u00e9l\u00e9gu\u00e9e : Mme Rosalia ARONICA<br /> -> ARTHAUD Nathalie"}, {"status": "Parrains", "candidat": "ARTHAUD Nathalie", "coordinates": [48.007428702, 5.53409668952], "couleur": "lightred", "infos": "Ville : Val-de-Meuse/Haute-Marne<br/>Maire d\u00e9l\u00e9gu\u00e9e d'une commune associ\u00e9e ou d'une commune d\u00e9l\u00e9gu\u00e9e : Mme Suzanne COEURDASSIER<br /> -> ARTHAUD Nathalie"}, {"status": "Parrains", "candidat": "ARTHAUD Nathalie", "coordinates": [47.6875295793, 5.2920187848], "couleur": "lightred", "infos": "Ville : Le Montsaugeonnais/Haute-Marne<br/>Maire d\u00e9l\u00e9gu\u00e9 d'une commune associ\u00e9e ou d'une commune d\u00e9l\u00e9gu\u00e9e : M. Vincent MEGA<br /> -> ARTHAUD Nathalie"}, {"status": "Parrains", "candidat": "ARTHAUD Nathalie", "coordinates": [47.8632118259, 5.78592799086], "couleur": "lightred", "infos": "Ville : Neuvelle-l\u00e8s-Voisey/Haute-Marne<br/>Maire : M. Daniel PLURIEL<br /> -> ARTHAUD Nathalie"}, {"status": "Parrains", "candidat": "ARTHAUD Nathalie", "coordinates": [48.4875952404, 5.01041992627], "couleur": "lightred", "infos": "Ville : Valleret/Haute-Marne<br/>Maire : M. Vincent RONDELET<br /> -> ARTHAUD Nathalie"}, {"status": "Parrains", "candidat": "ARTHAUD Nathalie", "coordinates": [47.8608869669, 4.98793387974], "couleur": "lightred", "infos": "Ville : Rouvres-sur-Aube/Haute-Marne<br/>Maire : M. Gilles SIMON<br /> -> ARTHAUD Nathalie"}, {"status": "Parrains", "candidat": "ARTHAUD Nathalie", "coordinates": [48.8125986306, 6.298257299], "couleur": "lightred", "infos": "Ville : Armaucourt/Meurthe-et-Moselle<br/>Maire : M. Jean-Claude CRESPY<br /> -> ARTHAUD Nathalie"}, {"status": "Parrains", "candidat": "ARTHAUD Nathalie", "coordinates": [48.5513232103, 6.85953452145], "couleur": "lightred", "infos": "Ville : Halloville/Meurthe-et-Moselle<br/>Maire : M. Pierre Christian MONZEIN<br /> -> ARTHAUD Nathalie"}, {"status": "Parrains", "candidat": "ARTHAUD Nathalie", "coordinates": [49.0108189344, 5.86625964379], "couleur": "lightred", "infos": "Ville : Dommartin-la-Chauss\u00e9e/Meurthe-et-Moselle<br/>Maire : M. Denis PETIT<br /> -> ARTHAUD Nathalie"}, {"status": "Parrains", "candidat": "ARTHAUD Nathalie", "coordinates": [48.9110254277, 5.80601775099], "couleur": "lightred", "infos": "Ville : Essey-et-Maizerais/Meurthe-et-Moselle<br/>Maire : M. G\u00e9rald PETITJEAN<br /> -> ARTHAUD Nathalie"}, {"status": "Parrains", "candidat": "ARTHAUD Nathalie", "coordinates": [48.7926139006, 6.23631393016], "couleur": "lightred", "infos": "Ville : Montenoy/Meurthe-et-Moselle<br/>Maire : M. S\u00e9bastien POINT<br /> -> ARTHAUD Nathalie"}, {"status": "Parrains", "candidat": "ARTHAUD Nathalie", "coordinates": [49.5391091104, 5.65720411208], "couleur": "lightred", "infos": "Ville : Ville-Houdl\u00e9mont/Meurthe-et-Moselle<br/>Maire : M. Laurent VERRON<br /> -> ARTHAUD Nathalie"}, {"status": "Parrains", "candidat": "ARTHAUD Nathalie", "coordinates": [48.8991708733, 5.43476068255], "couleur": "lightred", "infos": "Ville : Fresnes-au-Mont/Meuse<br/>Maire : M. Jean-Marc ILIC<br /> -> ARTHAUD Nathalie"}, {"status": "Parrains", "candidat": "ARTHAUD Nathalie", "coordinates": [48.9348988887, 5.41756249131], "couleur": "lightred", "infos": "Ville : Lahaymeix/Meuse<br/>Maire : M. Raymond LECLERC<br /> -> ARTHAUD Nathalie"}, {"status": "Parrains", "candidat": "ARTHAUD Nathalie", "coordinates": [48.5781146588, 5.6048244301], "couleur": "lightred", "infos": "Ville : Montigny-l\u00e8s-Vaucouleurs/Meuse<br/>Maire : Mme Sylvie NAJOTTE<br /> -> ARTHAUD Nathalie"}, {"status": "Parrains", "candidat": "ARTHAUD Nathalie", "coordinates": [49.5081292429, 5.32876869093], "couleur": "lightred", "infos": "Ville : Vigneul-sous-Montm\u00e9dy/Meuse<br/>Maire : M. Claude RICHARD<br /> -> ARTHAUD Nathalie"}, {"status": "Parrains", "candidat": "ARTHAUD Nathalie", "coordinates": [48.6394778194, 5.59975067222], "couleur": "lightred", "infos": "Ville : Sauvoy/Meuse<br/>Maire : Mme Michelle THIRIET<br /> -> ARTHAUD Nathalie"}, {"status": "Parrains", "candidat": "ARTHAUD Nathalie", "coordinates": [48.5765469967, 5.65580757296], "couleur": "lightred", "infos": "Ville : Neuville-l\u00e8s-Vaucouleurs/Meuse<br/>Maire : M. Alain TIRLICIEN<br /> -> ARTHAUD Nathalie"}, {"status": "Parrains", "candidat": "ARTHAUD Nathalie", "coordinates": [48.5461096496, 5.70282238531], "couleur": "lightred", "infos": "Ville : Champougny/Meuse<br/>Maire : M. Eric VINCENT<br /> -> ARTHAUD Nathalie"}, {"status": "Parrains", "candidat": "ARTHAUD Nathalie", "coordinates": [48.6526727598, 6.9670213438], "couleur": "lightred", "infos": "Ville : Aspach/Moselle<br/>Maire : M. Alain GENIN<br /> -> ARTHAUD Nathalie"}, {"status": "Parrains", "candidat": "ARTHAUD Nathalie", "coordinates": [48.9760540573, 6.53048540164], "couleur": "lightred", "infos": "Ville : Arraincourt/Moselle<br/>Maire : Mme Evelyne GEORGES<br /> -> ARTHAUD Nathalie"}, {"status": "Parrains", "candidat": "ARTHAUD Nathalie", "coordinates": [49.4565196788, 6.35072229703], "couleur": "lightred", "infos": "Ville : Contz-les-Bains/Moselle<br/>Maire : M. Yves LICHT<br /> -> ARTHAUD Nathalie"}, {"status": "Parrains", "candidat": "ARTHAUD Nathalie", "coordinates": [49.2636097823, 6.42936599156], "couleur": "lightred", "infos": "Ville : Hestroff/Moselle<br/>Maire : M. Pierre LOUNISSI<br /> -> ARTHAUD Nathalie"}, {"status": "Parrains", "candidat": "ARTHAUD Nathalie", "coordinates": [49.1299695233, 6.81296157618], "couleur": "lightred", "infos": "Ville : Betting/Moselle<br/>Maire : M. Roland RAUSCH<br /> -> ARTHAUD Nathalie"}, {"status": "Parrains", "candidat": "ARTHAUD Nathalie", "coordinates": [48.6352577375, 7.07124711805], "couleur": "lightred", "infos": "Ville : Vasperviller/Moselle<br/>Maire : M. Pascal ROHMER<br /> -> ARTHAUD Nathalie"}, {"status": "Parrains", "candidat": "ARTHAUD Nathalie", "coordinates": [49.2127279951, 6.25578322218], "couleur": "lightred", "infos": "Ville : Chailly-l\u00e8s-Ennery/Moselle<br/>Maire : M. Gilbert TURCK<br /> -> ARTHAUD Nathalie"}, {"status": "Parrains", "candidat": "ARTHAUD Nathalie", "coordinates": [50.5358395709, 2.83692247297], "couleur": "lightred", "infos": "Ville : Salom\u00e9/Nord<br/>Maire : M. Pierre CANESSE<br /> -> ARTHAUD Nathalie"}, {"status": "Parrains", "candidat": "ARTHAUD Nathalie", "coordinates": [50.0555182827, 3.11588275361], "couleur": "lightred", "infos": "Ville : Gouzeaucourt/Nord<br/>Maire : M. Jacques RICHARD<br /> -> ARTHAUD Nathalie"}, {"status": "Parrains", "candidat": "ARTHAUD Nathalie", "coordinates": [49.1304808787, 3.00990272849], "couleur": "lightred", "infos": "Ville : Boullarre/Oise<br/>Maire : M. Jo\u00ebl GONIAUX<br /> -> ARTHAUD Nathalie"}, {"status": "Parrains", "candidat": "ARTHAUD Nathalie", "coordinates": [49.6799986377, 2.10079870289], "couleur": "lightred", "infos": "Ville : Lavacquerie/Oise<br/>Maire : M. Paul JAMAULT<br /> -> ARTHAUD Nathalie"}, {"status": "Parrains", "candidat": "ARTHAUD Nathalie", "coordinates": [49.3480922542, 2.18400439052], "couleur": "lightred", "infos": "Ville : Ponchon/Oise<br/>Maire : M. Robert JOYOT<br /> -> ARTHAUD Nathalie"}, {"status": "Parrains", "candidat": "ARTHAUD Nathalie", "coordinates": [48.6896183653, -0.4875928451], "couleur": "lightred", "infos": "Ville : Saires-la-Verrerie/Orne<br/>Maire : M. Charlie LETETREL<br /> -> ARTHAUD Nathalie"}, {"status": "Parrains", "candidat": "ARTHAUD Nathalie", "coordinates": [50.4816510992, 1.66447526938], "couleur": "lightred", "infos": "Ville : Saint-Josse/Pas-de-Calais<br/>Maire : M. Jean-Claude DESCHARLES<br /> -> ARTHAUD Nathalie"}, {"status": "Parrains", "candidat": "ARTHAUD Nathalie", "coordinates": [50.3822929262, 1.65041372546], "couleur": "lightred", "infos": "Ville : Waben/Pas-de-Calais<br/>Maire : M. Jean-Claude GAUDUIN<br /> -> ARTHAUD Nathalie"}, {"status": "Parrains", "candidat": "ARTHAUD Nathalie", "coordinates": [50.0624565501, 3.06272750972], "couleur": "lightred", "infos": "Ville : Metz-en-Couture/Pas-de-Calais<br/>Maire : M. Michel LALISSE<br /> -> ARTHAUD Nathalie"}, {"status": "Parrains", "candidat": "ARTHAUD Nathalie", "coordinates": [45.5132697587, 3.29159884788], "couleur": "lightred", "infos": "Ville : Les Pradeaux/Puy-de-D\u00f4me<br/>Maire : Mme Marie-Pierre SAUX<br /> -> ARTHAUD Nathalie"}, {"status": "Parrains", "candidat": "ARTHAUD Nathalie", "coordinates": [42.5862325168, 2.86488169804], "couleur": "lightred", "infos": "Ville : Saint-Jean-Lasseille/Pyr\u00e9n\u00e9es-Orientales<br/>Maire : M. Philippe XANCHO<br /> -> ARTHAUD Nathalie"}, {"status": "Parrains", "candidat": "ARTHAUD Nathalie", "coordinates": [48.8360079859, 7.12394256542], "couleur": "lightred", "infos": "Ville : Hirschland/Bas-Rhin<br/>Maire : M. Guy DIERBACH<br /> -> ARTHAUD Nathalie"}, {"status": "Parrains", "candidat": "ARTHAUD Nathalie", "coordinates": [48.854674328, 7.26417699771], "couleur": "lightred", "infos": "Ville : Lohr/Bas-Rhin<br/>Maire : M. Fr\u00e9dy GERBER<br /> -> ARTHAUD Nathalie"}, {"status": "Parrains", "candidat": "ARTHAUD Nathalie", "coordinates": [47.6414713368, 7.31641739319], "couleur": "lightred", "infos": "Ville : Obermorschwiller/Haut-Rhin<br/>Maire : M. Georges RISS<br /> -> ARTHAUD Nathalie"}, {"status": "Parrains", "candidat": "ARTHAUD Nathalie", "coordinates": [47.3440809004, 5.98460824617], "couleur": "lightred", "infos": "Ville : Bussi\u00e8res/Haute-Sa\u00f4ne<br/>Maire : M. Emilien BRENOT<br /> -> ARTHAUD Nathalie"}, {"status": "Parrains", "candidat": "ARTHAUD Nathalie", "coordinates": [47.7448155296, 6.14540506475], "couleur": "lightred", "infos": "Ville : Breurey-l\u00e8s-Faverney/Haute-Sa\u00f4ne<br/>Maire : M. Jean MARCHAL<br /> -> ARTHAUD Nathalie"}, {"status": "Parrains", "candidat": "ARTHAUD Nathalie", "coordinates": [47.6119425531, 6.64355841755], "couleur": "lightred", "infos": "Ville : Courmont/Haute-Sa\u00f4ne<br/>Maire : M. Hugues VILLANI<br /> -> ARTHAUD Nathalie"}, {"status": "Parrains", "candidat": "ARTHAUD Nathalie", "coordinates": [46.5830730651, 4.54536544004], "couleur": "lightred", "infos": "Ville : Saint-Martin-la-Patrouille/Sa\u00f4ne-et-Loire<br/>Maire : M. Jean-Marc BERTRAND<br /> -> ARTHAUD Nathalie"}, {"status": "Parrains", "candidat": "ARTHAUD Nathalie", "coordinates": [46.6484823293, 4.60684665036], "couleur": "lightred", "infos": "Ville : Saint-Martin-du-Tartre/Sa\u00f4ne-et-Loire<br/>Maire : M. Bernard JUSSEAU<br /> -> ARTHAUD Nathalie"}, {"status": "Parrains", "candidat": "ARTHAUD Nathalie", "coordinates": [46.0216239121, 5.98148486224], "couleur": "lightred", "infos": "Ville : Contamine-Sarzin/Haute-Savoie<br/>Maire : M. Georges CANICATTI<br /> -> ARTHAUD Nathalie"}, {"status": "Parrains", "candidat": "ARTHAUD Nathalie", "coordinates": [49.8159183889, 0.58596239014], "couleur": "lightred", "infos": "Ville : Butot-V\u00e9nesville/Seine-Maritime<br/>Maire : Mme Alexandra BUQUET<br /> -> ARTHAUD Nathalie"}, {"status": "Parrains", "candidat": "ARTHAUD Nathalie", "coordinates": [49.7931612623, 0.923802196696], "couleur": "lightred", "infos": "Ville : Rainfreville/Seine-Maritime<br/>Maire : Mme Christelle CAHARD<br /> -> ARTHAUD Nathalie"}, {"status": "Parrains", "candidat": "ARTHAUD Nathalie", "coordinates": [49.9614365259, 1.21910748031], "couleur": "lightred", "infos": "Ville : Petit-Caux/Seine-Maritime<br/>Maire d\u00e9l\u00e9gu\u00e9 d'une commune associ\u00e9e ou d'une commune d\u00e9l\u00e9gu\u00e9e : M. G\u00e9rard F\u00c9CAMP<br /> -> ARTHAUD Nathalie"}, {"status": "Parrains", "candidat": "ARTHAUD Nathalie", "coordinates": [49.757012277, 1.15667476755], "couleur": "lightred", "infos": "Ville : Le Catelier/Seine-Maritime<br/>Maire : M. Herv\u00e9 ROLLAND<br /> -> ARTHAUD Nathalie"}, {"status": "Parrains", "candidat": "ARTHAUD Nathalie", "coordinates": [49.9885220384, 1.78442284949], "couleur": "lightred", "infos": "Ville : Vaux-Marquenneville/Somme<br/>Maire : M. Jean-Fran\u00e7ois LANGLET<br /> -> ARTHAUD Nathalie"},